stop_id,stop_code,stop_name,stop_desc,stop_lat,stop_lon,zone_id,stop_url,location_type,parent_station,stop_timezone,wheelchair_boarding
3974,4193,"McCabe Av & Southworth St",,42.968358,-79.235868,,,,,,0
3975,4194,"McCabe Av & Hildred S",,42.968620,-79.231832,,,,,,0
3976,4195,"Hildred St & Sauer Av",,42.970853,-79.231863,,,,,,0
3977,4196,"Sauer Av & McLaughlin St",,42.971020,-79.233040,,,,,,0
3978,4197,"Southworth St & Sauer Av",,42.971028,-79.235997,,,,,,0
3979,4198,"Southworth St & Orchard Av",,42.973070,-79.236140,,,,,,0
3980,4199,"Ontario Rd & Southworth St",,42.974675,-79.235758,,,,,,0
3981,4200,"Ontario Rd & 1046 Ontario Rd",,42.974675,-79.233365,,,,,,0
3982,4201,"Ontario Rd & Morwood Av",,42.974675,-79.231013,,,,,,0
3983,4202,"Ontario Rd & Hendershot Av",,42.974669,-79.228831,,,,,,0
3984,4203,"Ontario Rd & Charles Av",,42.974675,-79.227015,,,,,,0
3985,4204,"Memorial Park Dr & Ontario Rd",,42.975002,-79.225585,,,,,,0
3986,4205,"Memorial Park",,42.977735,-79.225617,,,,,,0
3987,4206,"Memorial Park Dr & Daisy St",,42.982290,-79.225657,,,,,,0
3988,4207,"Wellington St & Lincoln St",,42.984458,-79.225975,,,,,,0
3989,4208,"Eastdale Secondary School",,42.986603,-79.225997,,,,,,0
3990,4209,"Hagar St & Wellington St",,42.988035,-79.226555,,,,,,0
3991,4210,"Hagar St & Golden Blvd E",,42.987896,-79.229785,,,,,,0
3992,4211,"Hagar St & Lyons Av",,42.987881,-79.232008,,,,,,0
3993,4212,"Hagar St & Wallace Av S",,42.987872,-79.233693,,,,,,0
3994,4213,"Hagar St & Crowland Av",,42.987866,-79.235759,,,,,,0
3995,4214,"Hagar St & Duncan St",,42.987863,-79.237944,,,,,,0
3996,4215,"Hagar St & Empire St",,42.987847,-79.239765,,,,,,0
3997,4216,"Hagar St & Employment Options",,42.987806,-79.241878,,,,,,0
3998,4217,"Burgar St & Hagar St",,42.987492,-79.243338,,,,,,0
3999,4218,"Burger St & Burgar St Park",,42.989823,-79.243403,,,,,,0
4000,4219,"Ross St & Evan St",,42.994617,-79.241380,,,,,,0
4001,4220,"Ross St & McMaster Av",,42.996375,-79.241431,,,,,,0
4002,4221,"Ross St & Bruce St",,42.999277,-79.238751,,,,,,0
4003,4222,"River Rd & 426 River Rd",,43.004069,-79.238170,,,,,,0
4004,4223,"River Rd & 570 River Rd",,43.008992,-79.235028,,,,,,0
4006,4225,"Rona",,43.014848,-79.229868,,,,,,0
4008,4227,"River Rd & Woodlawn Rd",,43.011358,-79.234205,,,,,,0
4009,4228,"River Rd & 570 River Rd (W)",,43.009406,-79.234977,,,,,,0
4010,4229,"River Rd & Almond St",,43.002438,-79.239149,,,,,,0
4011,4230,"River Rd & Bruce St",,42.999981,-79.240938,,,,,,0
4012,4231,"River Rd & McMaster Av",,42.997430,-79.243046,,,,,,0
4013,4232,"Niagara St & Mill St",,42.992597,-79.252598,,,,,,0
4014,4233,"Niagara St & Elgin St",,42.995935,-79.252678,,,,,,0
4015,4241,"Niagara St & Roger Dr",,43.006750,-79.251970,,,,,,0
4016,4242,"Niagara St & Aqueduct St",,43.008277,-79.250540,,,,,,0
4017,4243,"Niagara St + Zehrs",,43.017432,-79.251168,,,,,,0
4018,4244,"Niagara St & Abbey Rd",,43.010295,-79.250023,,,,,,0
4019,4245,"Niagara St & Aqueduct St (W)",,43.008483,-79.250658,,,,,,0
4020,4246,"Niagara St & Roger Dr",,43.006503,-79.252312,,,,,,0
4021,4247,"Thorold Rd W & Douglas Av",,43.003730,-79.251993,,,,,,0
4022,4248,"Aqueduct St & Notre Dame",,43.001330,-79.249817,,,,,,0
4023,4249,"Aqueduct St & 128 Aqueduct St",,42.999090,-79.249825,,,,,,0
4024,4250,"Aqueduct St & 56 Aqueduct St",,42.997302,-79.249784,,,,,,0
4025,4251,"Church St & Niagara St",,42.996960,-79.252527,,,,,,0
4026,4252,"East Main St & 284 East Main St",,42.993249,-79.241750,,,,,,0
4027,4253,"Plymouth Rd & 35 Plymouth Rd",,42.982917,-79.246550,,,,,,0
4028,4254,"Downs Dr & Cooper Rd",,43.003049,-79.237541,,,,,,0
4029,4255,"River Rd & Jean Vanier",,43.011320,-79.234082,,,,,,0
4030,4256,"Riverside Dr & 281 Riverside Dr",,42.979612,-79.271855,,,,,,0
4032,3000,"Canal Bank Dr & Ontario Rd",,42.974459,-79.255096,,,,,,0
4033,2515,"Flag Stop - Killally St W & Stee",,42.891649,-79.260317,,,,,,0
4034,3080,"Flag Stop - Canal Bank St & Town",,42.962531,-79.252045,,,,,,0
4049,4159,"Southworth St & 115 Southworth S",,42.979087,-79.235948,,,,,,0
4058,6617,"Drummond & Valley Way NW",,43.098309,-79.098148,,,,,,0
4061,4078,"Willson Rd & Westwood Cr",,42.997492,-79.270090,,,,,,0
4062,4257,"East Main St + City Hall",,42.992063,-79.248921,,,,,,0
4063,4258,"Niagara St + Elizabeth St",,42.997837,-79.252725,,,,,,0
4064,4259,"Niagara St + Birch St",,43.002304,-79.252824,,,,,,0
4069,6001,"Park St & Ontario St",,43.107680,-79.065340,,,,,,0
4070,6002,"Park St & St Clair Av",,43.107666,-79.067014,,,,,,0
4071,6003,"Park St & St Lawrence Av",,43.107613,-79.070069,,,,,,0
4072,6004,"Park St & Buckley Av",,43.107670,-79.071883,,,,,,0
4074,4260,"WRIGHT ST + SAUER AV",,42.971051,-79.239098,,,,,,0
4075,9016,"NIAGARA ST + QUAKER ROAD",,43.022723,-79.249915,,,,,,0
4082,6836,"Dorchester Rd & Mcleod Rd SE",,43.069988,-79.109781,,,,,,0
4083,1404,"MERRITT ST + BALL AV E",,43.135924,-79.202547,,,,,,0
4086,66861,"McLeod Rd & Dorchester Rd",,43.070472,-79.110103,,,,,,0
4087,6748,"BROWN @ BUTTERNUT",,43.058933,-79.138008,,,,,,0
4088,6749,"BROWN @ OPPOSITE BUTTERNUT",,43.058888,-79.138427,,,,,,0
4089,6751,"GARNER SE @ MCLEOD",,43.069436,-79.148224,,,,,,0
4090,6752,"GARNER SW @ MCLEOD",,43.067057,-79.148278,,,,,,0
4091,6753,"GARNER @ SOURGUM",,43.064160,-79.148186,,,,,,0
4092,6754,"GARNER @ OPPOSITE SOURGUM",,43.064245,-79.148278,,,,,,0
4093,6755,"HEARTLAND FOREST",,43.055610,-79.131962,,,,,,0
4094,6756,"OPPOSITE HEARTLAND FOREST",,43.055580,-79.131879,,,,,,0
4095,6757,"BLACKBURN N @ HEARTLAND FOREST",,43.054864,-79.130970,,,,,,0
4096,6758,"BLACKBURN S @ HEARTLAND FOREST",,43.054608,-79.130624,,,,,,0
4097,6759,"BLACKBURN S @ MONTROSE",,43.053848,-79.125504,,,,,,0
4098,6760,"BLACKBURN N @ MONTROSE",,43.053887,-79.125326,,,,,,0
4099,6761,"DRUMMOND @ SAM IORFIDA",,43.066645,-79.096960,,,,,,0
4100,6762,"DRUMMOND @ LIONSHEAD",,43.066773,-79.096826,,,,,,0
4101,6763,"DRUMMOND SW @ OLDFIELD",,43.063746,-79.097038,,,,,,0
4102,6764,"DRUMMOND SE @ OLDFIELD",,43.063764,-79.096906,,,,,,0
4103,6765,"OLDFIELD @ PENDER",,43.063380,-79.100699,,,,,,0
4104,6766,"OLDFIELD @ OPPOSITE PENDER",,43.063302,-79.101055,,,,,,0
4105,6767,"DORCHESTER NE @ JUBILEE",,43.064568,-79.109620,,,,,,0
4106,6768,"DORCHESTER NW @ JUBILEE",,43.064502,-79.109697,,,,,,0
4107,6769,"BROWN @ HEARTLAND FOREST",,43.059038,-79.131890,,,,,,0
4108,6770,"STANLEY SW @ SALIT STEEL",,43.064018,-79.083771,,,,,,0
4109,6772,"STANLEY SW @ RAMSEY",,43.060069,-79.083817,,,,,,0
4110,6773,"8345 STANLEY AVENUE",,43.055913,-79.083597,,,,,,0
4111,6774,"PROGRESS @ EARL THOMAS",,43.054498,-79.088336,,,,,,0
4112,6776,"EARL THOMAS @ DON MURIE",,43.051584,-79.088333,,,,,,0
4113,6778,"DON MURIE @ STANLEY",,43.051570,-79.084223,,,,,,0
4114,6779,"OLDFIELD @ COLE",,43.063310,-79.105720,,,,,,0
4115,6780,"OLDFIELD @ OPPOSITE COLE",,43.063218,-79.105988,,,,,,0
4116,6781,"MONTROSE @ REGIONAL BUILDING",,43.072783,-79.125631,,,,,,0
4125,3635,"M/D Platform Upper",,43.104125,-79.114575,,,,,,0
4129,1405,"Kottmeier Rd & Vaughn Dr",,43.036609,-79.228933,,,,,,0
4130,1406,"Kottmeier Rd & Vaughn Dr",,43.036463,-79.228844,,,,,,0
4131,3085,"Flag Stop - Killaly St W & Elm S",,42.891682,-79.255173,,,,,,0
4132,3086,"Flag Stop - Killaly St W & King",,42.891666,-79.251955,,,,,,0
4140,2210,"Allanburg Rd & Hodgkins Av",,43.091532,-79.199407,,,,,,0
4156,6534,"Drummond Rd & Balmoral Av",,43.099725,-79.098285,,,,,,0
4157,6547,"Drummond Rd & Stevens St",,43.099638,-79.098213,,,,,,0
4163,1410,"Lakeport Rd & Lakehurst Drive",,43.191461,-79.255123,,,,,,0
2,1,"CHURCH ST + LYMAN ST",,43.160578,-79.246503,,,,,,0
3,2,"JAMES ST + DUKE ST",,43.160578,-79.247957,,,,,,0
4,3,"JAMES ST + LAKE ST",,43.161683,-79.250078,,,,,,0
5,4,"WELLAND AVE + YORK ST",,43.161393,-79.252899,,,,,,0
7,6,"FOURTH AVE + RIDLEY PLAZA",,43.155833,-79.263065,,,,,,0
8,1239,"FOURTH AVE + SMART CTR",,43.155627,-79.268342,,,,,,0
9,1240,"FOURTH AVE + VANSICKLE RD",,43.155547,-79.270408,,,,,,0
11,1242,"NIAGARA HEALTH SYSTEM - ST. CATHARINES SITE",,43.152973,-79.276837,,,,,,0
12,1243,"FIRST ST LOUTH + FOURTH AVE",,43.155007,-79.276153,,,,,,0
13,1244,"FOURTH AVE + VANSICKLE RD",,43.155388,-79.270948,,,,,,0
14,1245,"FOURTH AVE + SMART CTR",,43.155477,-79.268207,,,,,,0
15,1246,"MARTINDALE RD + RIDLEY PLAZA",,43.156335,-79.265187,,,,,,0
16,7,"MARTINDALE RD + ELDERWOOD DR",,43.158472,-79.265242,,,,,,0
17,8,"MARTINDALE RD + FAWELL AVE",,43.163455,-79.266610,,,,,,0
18,9,"GRAPEVIEW DR + MARTINDALE RD",,43.165252,-79.268643,,,,,,0
19,10,"GRAPEVIEW DR + VANSICKLE RD N",,43.164433,-79.270885,,,,,,0
20,11,"GRAPEVIEW DR + STONEY BROOK CRES",,43.163303,-79.273985,,,,,,0
21,12,"GRAPEVIEW DR + FIRST ST LOUTH",,43.162493,-79.276250,,,,,,0
22,13,"FIRST ST LOUTH + GRAPEVIEW SCHOOL",,43.164330,-79.276552,,,,,,0
23,14,"FIRST ST LOUTH + ENDICOTT DR",,43.166475,-79.276598,,,,,,0
24,15,"FIRST ST LOUTH + HUNTINGTON LANE",,43.169518,-79.276678,,,,,,0
25,16,"FIRST ST LOUTH + ERION RD",,43.171705,-79.276750,,,,,,0
26,17,"ERION RD + HUNTINGTON SQUARE",,43.172078,-79.274318,,,,,,0
27,18,"MARTINDALE RD + HANNOVER DR",,43.173635,-79.273920,,,,,,0
28,19,"MARTINDALE RD + CORPORATE PARK DR",,43.176115,-79.275240,,,,,,0
29,20,"MARTINDALE RD + BROOKLYN CT",,43.180455,-79.277720,,,,,,0
30,21,"370 MARTINDALE RD",,43.182488,-79.278992,,,,,,0
31,22,"MARTINDALE RD + GOLDEN BLVD",,43.184420,-79.280772,,,,,,0
32,23,"MARTINDALE RD + DALEMERE BLVD",,43.188752,-79.286048,,,,,,0
33,24,"MARTINDALE RD + MAIN ST",,43.190262,-79.286542,,,,,,0
37,28,"MAIN ST + HENLEY ISLAND DR",,43.193767,-79.280405,,,,,,0
38,29,"CORBETT AV + MAIN ST",,43.195148,-79.278912,,,,,,0
39,30,"CORBETT AV + BAYVIEW DR",,43.196523,-79.280517,,,,,,0
40,31,"BAYVIEW DR + SHELLEY AVE",,43.197413,-79.279340,,,,,,0
41,32,"BAYVIEW DR + JOHNSTON ST",,43.198137,-79.278237,,,,,,0
42,33,"JOHNSTON ST + MAIN ST",,43.196793,-79.276385,,,,,,0
43,34,"MAIN ST + CHRISTIE ST",,43.197668,-79.274477,,,,,,0
44,35,"MAIN ST + ELGIN ST",,43.198805,-79.272745,,,,,,0
45,36,"MAIN ST + ANN ST",,43.199727,-79.271313,,,,,,0
46,37,"MAIN ST + BROCK ST",,43.200895,-79.269550,,,,,,0
47,38,"MAIN ST + SIMCOE ST",,43.201785,-79.268152,,,,,,0
48,39,"MAIN ST + LOCK ST",,43.202563,-79.266975,,,,,,0
49,40,"LAKEPORT RD + RENNIE PARK",,43.200967,-79.265878,,,,,,0
50,41,"88 LAKEPORT RD",,43.197477,-79.262620,,,,,,0
51,42,"LAKEPORT RD + EMBASSY AV",,43.196373,-79.260887,,,,,,0
52,43,"LAKESHORE RD + LAKEPORT RD",,43.196540,-79.259775,,,,,,0
53,132,"LAKESHORE RD + LAKEPORT RD",,43.197048,-79.259910,,,,,,0
54,44,"LAKEPORT RD + LAKESHORE RD",,43.196477,-79.260983,,,,,,0
55,45,"LAKEPORT RD + MICHIGAN AVE",,43.197947,-79.263272,,,,,,0
56,46,"LAKEPORT RD + LOCK ST",,43.201165,-79.265790,,,,,,0
57,47,"LOCK ST + MAIN ST",,43.202572,-79.266688,,,,,,0
58,48,"MAIN ST + SIMCOE ST",,43.201762,-79.268287,,,,,,0
59,49,"MAIN ST + BROCK ST",,43.200847,-79.269685,,,,,,0
60,50,"MAIN ST + ANN ST",,43.199980,-79.270997,,,,,,0
61,51,"MAIN ST + ELGIN ST",,43.198955,-79.272585,,,,,,0
62,52,"MAIN ST + CHRISTIE ST",,43.197898,-79.274207,,,,,,0
63,53,"JOHNSTON ST + MAIN ST",,43.196833,-79.276463,,,,,,0
64,54,"JOHNSTON ST + BAYVIEW DR",,43.198168,-79.278062,,,,,,0
66,56,"BAYVIEW DR + CORBETT AV",,43.196825,-79.280327,,,,,,0
68,58,"CORBETT AV + MAIN ST",,43.195030,-79.278880,,,,,,0
69,59,"MAIN ST + ST ANN SCHOOL",,43.193655,-79.280723,,,,,,0
70,60,"MAIN ST + COLE FARM BLVD",,43.191715,-79.283720,,,,,,0
71,61,"MARTINDALE RD + MAIN ST",,43.190262,-79.286692,,,,,,0
73,63,"MARTINDALE RD + GOLDEN BLVD",,43.184380,-79.280898,,,,,,0
74,1247,"357 MARTINDALE RD",,43.182513,-79.279095,,,,,,0
75,64,"MARTINDALE RD + BROOKLYN CT",,43.180048,-79.277623,,,,,,0
76,66,"MARTINDALE RD + SOUTH SERVICE RD",,43.175615,-79.275208,,,,,,0
77,67,"MARTINDALE RD + HANNOVER DR",,43.173698,-79.274095,,,,,,0
78,68,"MARTINDALE RD + ERION RD",,43.172427,-79.273397,,,,,,0
79,69,"ERION RD + HUNTINGTON SQUARE",,43.172093,-79.275082,,,,,,0
80,70,"FIRST ST LOUTH + ERION RD",,43.171537,-79.276877,,,,,,0
81,71,"FIRST ST LOUTH + MARACAY WAY",,43.169622,-79.276790,,,,,,0
82,72,"FIRST ST LOUTH + DUNBAR CR",,43.167032,-79.276710,,,,,,0
83,73,"FIRST ST LOUTH + 3RD AVE LOUTH",,43.164695,-79.276638,,,,,,0
84,74,"FIRST ST LOUTH + MOTHER TERESA SCHOOL",,43.162835,-79.276575,,,,,,0
85,75,"GRAPEVIEW DR + STONEY BROOK CR",,43.163360,-79.273747,,,,,,0
86,76,"GRAPEVIEW DR + VANSICKLE DR",,43.164170,-79.271488,,,,,,0
87,77,"GRAPEVIEW DR + MARTINDALE RD",,43.165212,-79.268517,,,,,,0
88,78,"MARTINDALE RD + FAWELL AVE",,43.163463,-79.266737,,,,,,0
89,79,"MARTINDALE RD + ELDERWOOD DR",,43.159028,-79.265425,,,,,,0
91,81,"FOURTH AVE + HWY 406",,43.156295,-79.260895,,,,,,0
92,82,"WELLAND AVE + ONTARIO ST",,43.160593,-79.255013,,,,,,0
94,84,"JAMES ST + WELLAND AVE",,43.161587,-79.250110,,,,,,0
95,85,"JAMES ST + DUKE ST",,43.160762,-79.248465,,,,,,0
96,86,"ST CATHARINES PUBLIC LIBRARY CARLISLE ST ENTRANCE",,43.160435,-79.245367,,,,,,0
97,88,"KING ST + JAMES ST",,43.158758,-79.245955,,,,,,0
98,89,"KING ST + QUEEN ST",,43.157257,-79.247305,,,,,,0
100,584,"GLENRIDGE AVE + WESTCHESTER CR",,43.154808,-79.242060,,,,,,0
101,585,"GLENRIDGE AVE + HILLCREST AVE",,43.152663,-79.240702,,,,,,0
102,586,"GLENRIDGE AVE + WYCHWOOD RD",,43.151510,-79.240367,,,,,,0
103,587,"GLENRIDGE AVE + RIDGEWOOD RD",,43.150287,-79.240192,,,,,,0
104,588,"GLENRIDGE AVE + ROCKCLIFFE RD",,43.148673,-79.239938,,,,,,0
105,589,"GLENRIDGE AVE + EDGEDALE RD",,43.146853,-79.239692,,,,,,0
106,590,"GLENRIDGE AVE + RIVERVIEW BLVD",,43.143610,-79.239517,,,,,,0
107,1062,"GLENRIDGE AVE + GLENRIDGE PLAZA",,43.141942,-79.239485,,,,,,0
108,599,"GLENRIDGE AVE + GLEN MORRIS DR",,43.140130,-79.239198,,,,,,0
109,592,"GLEN MORRIS DR + TOWERING HEIGHTS BLVD",,43.139668,-79.236155,,,,,,0
110,593,"GLEN MORRIS DR + VILLAGE RD",,43.140098,-79.231585,,,,,,0
111,740,"GLEN MORRIS DR + JACOBSON AV",,43.140480,-79.227747,,,,,,0
112,594,"JACOBSON AVE + OAKMOUNT DR",,43.139042,-79.227477,,,,,,0
115,595,"CHESTNUT ST W + JACOBSON AV",,43.138977,-79.227333,,,,,,0
116,596,"JACOBSON AVE + GLEN MORRIS DR",,43.140472,-79.227540,,,,,,0
117,597,"GLEN MORRIS DR + SIR WINSTON CHURCHILL",,43.140248,-79.231467,,,,,,0
119,600,"190 GLENRIDGE AVE + SOUTHRIDGE COMMUNITY CHURCH",,43.142157,-79.239302,,,,,,0
120,601,"GLENRIDGE AVE + EDGEDALE RD",,43.146472,-79.239612,,,,,,0
121,602,"GLENRIDGE AVE + ROCKCLIFFE RD",,43.148435,-79.239875,,,,,,0
122,603,"GLENRIDGE AVE + RIDGEWOOD RD",,43.150238,-79.240145,,,,,,0
123,604,"GLENRIDGE AVE + DOWNING ST",,43.151860,-79.240398,,,,,,0
124,605,"GLENRIDGE AVE + WESTCHESTER CRES",,43.154629,-79.241868,,,,,,0
125,606,"WESTCHESTER CR + ST PAUL ST",,43.155253,-79.245358,,,,,,0
126,195,"ST PAUL ST + QUEEN ST",,43.156652,-79.245342,,,,,,0
128,90,"ONTARIO ST + CHURCH ST",,43.156803,-79.249793,,,,,,0
129,91,"ONTARIO ST + MONTEBELLO PARK",,43.158265,-79.252653,,,,,,0
130,92,"164 ONTARIO ST",,43.159800,-79.254672,,,,,,0
132,94,"ONTARIO ST + WOODRUFF AVE",,43.161890,-79.257358,,,,,,0
133,95,"ONTARIO ST + LOWELL AVE",,43.163368,-79.259138,,,,,,0
134,96,"ONTARIO ST + PLEASANT AVE",,43.164965,-79.260918,,,,,,0
135,97,"ONTARIO ST + CARLTON ST",,43.166562,-79.262738,,,,,,0
136,98,"ONTARIO ST + MANCHESTER AVE",,43.168310,-79.263803,,,,,,0
137,99,"ONTARIO ST + 330 ONTARIO ST",,43.169837,-79.264383,,,,,,0
138,100,"ONTARIO ST + SITEL",,43.170735,-79.264702,,,,,,0
139,101,"ONTARIO ST + 370 ONTARIO ST",,43.172705,-79.265393,,,,,,0
140,102,"ONTARIO ST + SCOTT ST W",,43.175615,-79.266180,,,,,,0
141,103,"ONTARIO ST + HISCOTT ST",,43.177220,-79.266513,,,,,,0
142,104,"ONTARIO ST + MEADOWVALE DR",,43.181773,-79.266975,,,,,,0
143,105,"ONTARIO ST + LINHAVEN",,43.183395,-79.266068,,,,,,0
144,106,"ONTARIO ST + JULIANA CR",,43.184730,-79.265370,,,,,,0
145,107,"ONTARIO ST + LINWELL RD",,43.186375,-79.264337,,,,,,0
146,108,"ONTARIO ST + JAYCEE GARDENS PARK",,43.189347,-79.262778,,,,,,0
147,109,"ONTARIO ST + CHAPLEAU GT",,43.191373,-79.261762,,,,,,0
148,110,"ONTARIO ST + LAKEHURST DR",,43.193003,-79.261022,,,,,,0
149,111,"ONTARIO ST + PHILPARK RD",,43.194608,-79.260355,,,,,,0
150,113,"LAKESHORE RD + CRESCENTWOOD DR",,43.198288,-79.257215,,,,,,0
151,114,"LAKESHORE RD + LAKE ST",,43.199488,-79.254005,,,,,,0
152,115,"LAKESHORE RD + 614 LAKE ST",,43.200218,-79.251987,,,,,,0
153,116,"LAKESHORE RD + PRINCE CHARLES DR",,43.201085,-79.249658,,,,,,0
154,117,"LAKESHORE RD + SHORELINE DR",,43.202795,-79.245780,,,,,,0
155,118,"LAKESHORE RD + GENEVA ST",,43.204288,-79.242910,,,,,,0
156,119,"LAKESHORE RD + AQUADALE DR",,43.205480,-79.240605,,,,,,0
158,121,"LAKESHORE RD + LOYALIST DR",,43.208707,-79.234398,,,,,,0
160,1231,"LAKESHORE RD + VINE STREET",,43.209795,-79.232515,,,,,,0
161,123,"LAKESHORE RD + LOYALIST DR",,43.208810,-79.234423,,,,,,0
162,124,"LAKESHORE RD + TANNER CIR",,43.207245,-79.237412,,,,,,0
163,125,"LAKESHORE RD + AQUADALE DR",,43.205902,-79.240002,,,,,,0
164,126,"LAKESHORE RD + GENEVA ST",,43.204248,-79.243260,,,,,,0
165,127,"LAKESHORE RD + SHORELINE DR",,43.202477,-79.246590,,,,,,0
166,128,"LAKESHORE RD + SIMPSON RD",,43.201133,-79.249768,,,,,,0
168,130,"LAKESHORE RD + LAKE ST",,43.199592,-79.253847,,,,,,0
169,131,"LAKESHORE RD + WESTGATE PARK",,43.198829,-79.255934,,,,,,0
175,138,"ONTARIO ST + ROYAL HENLEY BLVD",,43.184563,-79.265520,,,,,,0
176,139,"ONTARIO ST + LINHAVEN",,43.183442,-79.266157,,,,,,0
177,140,"ONTARIO ST + HENLEY PLAZA",,43.181813,-79.267102,,,,,,0
178,141,"ONTARIO ST + HISCOTT RD",,43.177545,-79.266705,,,,,,0
179,142,"ONTARIO ST + 375 ONTARIO ST",,43.175177,-79.266197,,,,,,0
180,143,"ONTARIO ST + 343 ONTARIO ST",,43.172650,-79.265473,,,,,,0
181,144,"ONTARIO ST + SITEL",,43.170647,-79.264837,,,,,,0
182,145,"ONTARIO ST + 327 ONTARIO ST",,43.169495,-79.264337,,,,,,0
190,153,"ONTARIO ST + ADAMS ST",,43.157948,-79.252288,,,,,,0
191,154,"ONTARIO ST + NORRIS PL",,43.157240,-79.251080,,,,,,0
192,155,"CHURCH ST + WILLIAM ST",,43.157653,-79.249110,,,,,,0
193,156,"CHURCH ST + JAMES ST",,43.159370,-79.247535,,,,,,0
198,1189,"QUEENSTON ST + CHURCH ST",,43.163407,-79.235320,,,,,,0
199,201,"OAKDALE AVE + GALE CR",,43.162867,-79.232325,,,,,,0
200,202,"OAKDALE AVE + EASTCHESTER AVE",,43.160125,-79.229050,,,,,,0
201,203,"OAKDALE AVE + WESTCHESTER CRES",,43.158623,-79.229042,,,,,,0
202,1219,"292 OAKDALE AVE",,43.157057,-79.229193,,,,,,0
203,204,"OAKDALE AVE + CAPNER ST",,43.155047,-79.227167,,,,,,0
204,205,"OAKDALE AVE + MARREN ST",,43.153482,-79.225903,,,,,,0
205,206,"OAKDALE AVE + LINCOLN AVE",,43.152515,-79.224599,,,,,,0
206,207,"OAKDALE AVE + TURNER CR",,43.150422,-79.222438,,,,,,0
207,208,"OAKDALE AVE + DISHER ST",,43.147950,-79.221397,,,,,,0
208,209,"OAKDALE AVE + SMYTHE ST",,43.146758,-79.220452,,,,,,0
209,210,"OAKDALE AVE + ABBOT ST",,43.145558,-79.219402,,,,,,0
210,211,"OAKDALE AVE + HICKORY ST",,43.143190,-79.216382,,,,,,0
211,1218,"OAKDALE AVE + MERRITT ST",,43.143262,-79.214555,,,,,,0
213,214,"MERRITT ST + WALNUT ST",,43.140217,-79.213982,,,,,,0
214,215,"MERRITT ST + ALMOND ST",,43.138763,-79.214013,,,,,,0
215,216,"MERRITT ST + GLENDALE AVE",,43.137500,-79.213950,,,,,,0
216,217,"GLENDALE AVE + MOUNTAIN LOCKS PLAZA",,43.136338,-79.214530,,,,,,0
217,218,"GLENDALE AVE + MOUNTAIN ST",,43.135942,-79.217495,,,,,,0
218,219,"GLENDALE AVE + BURLEIGH HILL DR",,43.135123,-79.219458,,,,,,0
220,222,"GLENDALE AVE + BURLEIGH HILL DR",,43.134940,-79.219593,,,,,,0
221,239,"GLENDALE AVE + MOUNTAIN ST",,43.135893,-79.216303,,,,,,0
222,241,"MERRITT ST + ALMOND LN",,43.137907,-79.213855,,,,,,0
223,242,"MERRITT ST + WALNUT ST",,43.140265,-79.213975,,,,,,0
224,244,"OAKDALE AVE + MERRITT ST",,43.143348,-79.214578,,,,,,0
225,245,"OAKDALE AVE + HICKORY ST",,43.143300,-79.216685,,,,,,0
228,248,"OAKDALE AVE + SMYTHE ST",,43.147060,-79.220563,,,,,,0
229,249,"OAKDALE AVE + DISHER ST",,43.148062,-79.221388,,,,,,0
230,250,"OAKDALE AVE + TURNER CR",,43.150453,-79.222453,,,,,,0
231,251,"OAKDALE AVE + LINCOLN AVE",,43.152647,-79.224592,,,,,,0
234,1226,"276 OAKDALE AVE",,43.156103,-79.228430,,,,,,0
235,1220,"292 OAKDALE AVE",,43.157908,-79.228860,,,,,,0
237,255,"OAKDALE AVE + EASTCHESTER AVE W",,43.160538,-79.228987,,,,,,0
238,256,"OAKDALE AVE + GALE CR",,43.163053,-79.232353,,,,,,0
241,258,"QUEENSTON ST + CALVIN ST",,43.162962,-79.237665,,,,,,0
243,344,"LAKE ST + WELLAND AV",,43.162683,-79.250523,,,,,,0
244,345,"LAKE ST + LOUISA ST",,43.164043,-79.250612,,,,,,0
245,346,"LAKE ST + ALBERT ST",,43.165800,-79.250715,,,,,,0
246,347,"LAKE ST + BEECH ST",,43.167357,-79.250730,,,,,,0
248,349,"LAKE ST + RUSSELL AVE",,43.169868,-79.250890,,,,,,0
249,269,"LAKE ST + STUART AVE",,43.171330,-79.250953,,,,,,0
250,350,"LAKE ST + CARLTON ST",,43.172618,-79.251065,,,,,,0
251,351,"LAKE ST + ERINDALE AVE",,43.174367,-79.251160,,,,,,0
252,287,"LAKE ST + NORTH SERVICE RD",,43.180048,-79.251407,,,,,,0
253,352,"LAKE ST + SCOTT ST",,43.181742,-79.251478,,,,,,0
254,353,"LAKE ST + SKYWAY PRINTING",,43.183427,-79.251573,,,,,,0
255,354,"LAKE ST + NIHAN DR",,43.184682,-79.251637,,,,,,0
256,355,"LAKE ST + ARRAN DR",,43.186820,-79.251772,,,,,,0
257,356,"LAKE ST + GARDEN CITY PLAZA",,43.189713,-79.251907,,,,,,0
258,357,"LAKE ST + LINWELL RD",,43.191192,-79.251987,,,,,,0
259,358,"LAKE ST + PRINCE CHARLES DR",,43.194212,-79.252145,,,,,,0
262,361,"LAKE ST + LAKESHORE RD",,43.199250,-79.252440,,,,,,0
263,561,"LAKE ST + LAKESHORE RD",,43.199322,-79.252607,,,,,,0
264,362,"LAKE ST + HEIDEHOF",,43.196595,-79.252407,,,,,,0
265,363,"LAKE ST + ST FRANCIS SCHOOL",,43.193495,-79.252272,,,,,,0
266,364,"LAKE ST + LINWELL RD",,43.191548,-79.252168,,,,,,0
267,365,"LAKE ST + LAKEPORT RD",,43.189218,-79.252049,,,,,,0
268,366,"LAKE ST + ARRAN DR",,43.186312,-79.251907,,,,,,0
269,367,"LAKE ST + WESTGATE PLAZA",,43.183125,-79.251723,,,,,,0
270,368,"LAKE ST + SCOTT ST",,43.181257,-79.251637,,,,,,0
271,320,"LAKE ST + NORTH SERVICE RD",,43.178698,-79.251542,,,,,,0
272,321,"LAKE ST + SPRINGDALE AV",,43.175487,-79.251327,,,,,,0
273,369,"LAKE ST + ERINDALE AVE",,43.174367,-79.251287,,,,,,0
274,370,"LAKE ST + LAKE-CARLTON PLAZA",,43.172642,-79.251200,,,,,,0
275,371,"LAKE ST + STUART AV",,43.171435,-79.251092,,,,,,0
276,1252,"LAKE ST + RUSSELL AVE",,43.169813,-79.250968,,,,,,0
277,372,"LAKE ST + DUFFERIN ST",,43.168200,-79.250890,,,,,,0
278,373,"LAKE ST + BEECH ST",,43.166928,-79.250802,,,,,,0
279,374,"LAKE ST + ALBERT ST",,43.165402,-79.250738,,,,,,0
281,376,"LAKE ST + ELIZABETH ST",,43.163217,-79.250643,,,,,,0
283,261,"CHURCH ST + ACADEMY ST",,43.161715,-79.245398,,,,,,0
284,342,"CLARK ST + WELLAND AVE",,43.162988,-79.247100,,,,,,0
285,459,"WELLAND AVE + MIDTOWN PLAZA",,43.163995,-79.245183,,,,,,0
286,460,"WELLAND AVE + WATER ST",,43.164957,-79.242497,,,,,,0
287,461,"WELLAND AVE + GENEVA ST",,43.165903,-79.239858,,,,,,0
288,462,"WELLAND AVE + NIAGARA ST",,43.166762,-79.237458,,,,,,0
289,463,"WELLAND AVE + PAGE ST",,43.167778,-79.234630,,,,,,0
291,465,"WELLAND AVE + EAST ST",,43.168995,-79.231188,,,,,,0
292,466,"WELLAND AVE + VINE ST",,43.169662,-79.229280,,,,,,0
293,467,"WELLAND AVE + BERRYMAN AVE",,43.170433,-79.227008,,,,,,0
294,468,"WELLAND AVE + DIEPPE RD",,43.171935,-79.222763,,,,,,0
295,469,"GRANTHAM AVE + WELLAND AVE",,43.173500,-79.220245,,,,,,0
296,470,"GRANTHAM AVE + HIGHFIELD AVE",,43.176083,-79.220363,,,,,,0
297,471,"GRANTHAM AVE + WINNIFRED AVE",,43.177935,-79.220420,,,,,,0
298,472,"GRANTHAM AVE + GARNET ST",,43.179803,-79.220498,,,,,,0
299,473,"GRANTHAM AVE + KAREN AVE",,43.181003,-79.220538,,,,,,0
301,475,"GRANTHAM AVE + TANERA CR",,43.183338,-79.220642,,,,,,0
302,476,"GRANTHAM AVE + KENWORTH DR",,43.186185,-79.220777,,,,,,0
304,478,"GRANTHAM AVE + DWYER ST",,43.189872,-79.220943,,,,,,0
305,479,"GRANTHAM AVE + SCOTT ST",,43.192702,-79.221087,,,,,,0
306,480,"GRANTHAM AVE + AGAR DR",,43.194028,-79.221135,,,,,,0
307,481,"GRANTHAM AVE + BESSBOROUGH DR",,43.195427,-79.221230,,,,,,0
308,482,"GRANTHAM AVE + GROSVENOR ST",,43.197755,-79.221318,,,,,,0
310,1238,"GRANTHAM AVE + LINWELL PLAZA",,43.200513,-79.221422,,,,,,0
311,484,"LINWELL RD + GRANTHAM AVE",,43.201523,-79.220578,,,,,,0
312,485,"LINWELL RD + HOLY CROSS SS",,43.202595,-79.217598,,,,,,0
313,486,"LINWELL RD + ROCHELLE DR",,43.203255,-79.215930,,,,,,0
314,487,"LINWELL RD + HANSON DR",,43.204033,-79.213840,,,,,,0
315,488,"LINWELL RD + BUNTING RD",,43.204670,-79.212155,,,,,,0
316,489,"BUNTING RD + LOUIS AVE",,43.206703,-79.211478,,,,,,0
317,490,"BUNTING RD + BEAMER AVE",,43.208962,-79.211622,,,,,,0
318,491,"BUNTING RD + MALTESE BLVD",,43.210750,-79.211980,,,,,,0
319,492,"BUNTING RD + PARNELL RD",,43.213578,-79.213212,,,,,,0
320,493,"PARNELL RD + PEARCE AV",,43.213182,-79.215158,,,,,,0
321,410,"NIAGARA ST + GRANTHAM LIONS PARK",,43.213047,-79.217050,,,,,,0
322,411,"LAKESHORE RD + ARTHUR ST",,43.213783,-79.221529,,,,,,0
324,413,"ARTHUR ST + CROYDON DR",,43.216940,-79.222312,,,,,,0
325,414,"ARTHUR ST + CINDY DR",,43.218473,-79.222390,,,,,,0
327,416,"ARTHUR ST + NORTHGLEN AVE",,43.221398,-79.222510,,,,,,0
328,417,"ARTHUR ST + BEACHAVEN DR",,43.222702,-79.222590,,,,,,0
329,418,"BEACHAVEN DR + BOGART ST",,43.222885,-79.220420,,,,,,0
330,419,"BOGART ST + NORTHGLEN AVE",,43.221685,-79.220222,,,,,,0
331,420,"BOGART ST + WILDWOOD RD",,43.219618,-79.220125,,,,,,0
333,422,"ARTHUR ST + CINDY DR",,43.218300,-79.222478,,,,,,0
334,423,"ARTHUR ST + CROYDON DR",,43.216917,-79.222422,,,,,,0
335,424,"ARTHUR ST + NOTTINGHAM CT",,43.214166,-79.222265,,,,,,0
336,425,"LAKESHORE RD + OMARA DR",,43.214198,-79.219665,,,,,,0
337,426,"NIAGARA ST + PARNELL RD",,43.213435,-79.217185,,,,,,0
338,503,"PARNELL RD + PEARCE AV",,43.213085,-79.215190,,,,,,0
340,1280,"BUNTING RD + MALTESE BLVD",,43.210750,-79.211987,,,,,,0
341,505,"BUNTING RD + BEAMER AVE",,43.208557,-79.211645,,,,,,0
342,506,"BUNTING RD + LOUIS AVE",,43.206775,-79.211567,,,,,,0
343,507,"BUNTING RD + LINWELL RD",,43.205043,-79.211478,,,,,,0
344,508,"LINWELL RD + LOUIS AVE",,43.203907,-79.214205,,,,,,0
345,509,"LINWELL RD + HOLY CROSS SS",,43.202937,-79.216757,,,,,,0
346,510,"LINWELL RD + GRANTHAM AVE",,43.201690,-79.220357,,,,,,0
347,511,"GRANTHAM AVE + LINWELL RD",,43.200697,-79.221485,,,,,,0
349,513,"GRANTHAM AVE + GROSVENOR ST",,43.197787,-79.221357,,,,,,0
350,1236,"GRANTHAM AVE + GRANTHAM AVE PARK",,43.195458,-79.221285,,,,,,0
351,514,"GRANTHAM AVE + AGAR DR",,43.193917,-79.221183,,,,,,0
352,515,"GRANTHAM AVE + SCOTT ST",,43.192105,-79.221103,,,,,,0
353,516,"GRANTHAM AVE + WINSTON RD",,43.190047,-79.221000,,,,,,0
354,517,"GRANTHAM AVE + CHATHAM RD",,43.187543,-79.220897,,,,,,0
355,518,"GRANTHAM AVE + KENWORTH DR",,43.186137,-79.220833,,,,,,0
356,519,"GRANTHAM AVE + CARLTON ST",,43.182982,-79.220682,,,,,,0
357,520,"GRANTHAM AVE + KAREN AVE",,43.181320,-79.220578,,,,,,0
358,521,"GRANTHAM AVE + GARNET ST",,43.179477,-79.220498,,,,,,0
359,522,"GRANTHAM AVE + FACER ST",,43.177705,-79.220435,,,,,,0
360,523,"GRANTHAM AVE + PROSPECT AVE",,43.175923,-79.220439,,,,,,0
361,524,"GRANTHAM AVE + HOMEWOOD AVE",,43.173802,-79.220325,,,,,,0
362,525,"WELLAND AVE + WAVERLY AVE",,43.172403,-79.221660,,,,,,0
363,526,"WELLAND AVE + PARKVIEW AVE",,43.172062,-79.222613,,,,,,0
364,527,"WELLAND AVE + PLYMOUTH AVE",,43.170918,-79.225712,,,,,,0
365,528,"WELLAND AVE + BERRYMAN AVE",,43.170242,-79.227747,,,,,,0
366,529,"WELLAND AVE + VINE ST",,43.169742,-79.229265,,,,,,0
367,530,"WELLAND AVE + TASKER ST",,43.168660,-79.232372,,,,,,0
368,531,"WELLAND AVE + PAGE ST",,43.167850,-79.234645,,,,,,0
369,532,"WELLAND AVE + NIAGARA ST",,43.166992,-79.237077,,,,,,0
370,533,"WELLAND AVE + GENEVA SQUARE PLAZA",,43.166323,-79.239063,,,,,,0
371,534,"WELLAND AVE + WATER ST",,43.165212,-79.242028,,,,,,0
373,536,"WELLAND AVE + CATHERINE ST",,43.164043,-79.245255,,,,,,0
374,343,"CLARK ST + CHURCH ST",,43.162088,-79.245287,,,,,,0
376,538,"GENEVA ST + CHURCH ST",,43.164155,-79.240130,,,,,,0
377,539,"GENEVA ST + WELLAND AVE",,43.166142,-79.240272,,,,,,0
378,540,"GENEVA ST + MAPLE ST",,43.167865,-79.240392,,,,,,0
379,541,"GENEVA ST + DACOTAH ST",,43.169105,-79.240447,,,,,,0
380,542,"GENEVA ST + RUSSELL AVE",,43.170798,-79.240518,,,,,,0
381,543,"GENEVA ST + ST PATRICK ST",,43.172578,-79.240605,,,,,,0
382,544,"GENEVA ST + ATWOOD ST",,43.173930,-79.240653,,,,,,0
384,545,"FAIRVIEW MALL + SWISS CHALET",,43.177688,-79.241973,,,,,,0
385,546,"GENEVA ST + WOOD ST",,43.179620,-79.240908,,,,,,0
386,547,"GENEVA ST + TED ST",,43.182028,-79.241018,,,,,,0
387,548,"GENEVA ST + SCOTT ST",,43.185158,-79.241115,,,,,,0
388,549,"GENEVA ST + EDWARD AV",,43.186487,-79.241193,,,,,,0
389,550,"GENEVA ST + THOMPSON AVE",,43.189228,-79.241345,,,,,,0
390,551,"GENEVA ST + MILLWARD AVE",,43.191930,-79.241495,,,,,,0
391,552,"GENEVA ST + LINWELL RD",,43.193980,-79.241598,,,,,,0
392,553,"GENEVA ST + ST COLUMBA DR",,43.195760,-79.241710,,,,,,0
393,554,"GENEVA ST + GLEN PARK RD",,43.197502,-79.241790,,,,,,0
394,555,"GENEVA ST + GUY RD",,43.199210,-79.241893,,,,,,0
395,556,"GENEVA ST + 580 GENEVA ST",,43.201102,-79.242005,,,,,,0
396,1281,"GENEVA  ST + DRAPER DR",,43.202818,-79.242100,,,,,,0
397,558,"GENEVA ST + LAKESHORE RD",,43.204423,-79.242163,,,,,,0
398,499,"LAKESHORE RD + STANLEY ST",,43.211138,-79.229630,,,,,,0
399,500,"LAKESHORE RD + BRADMON DR",,43.212117,-79.227525,,,,,,0
401,502,"LAKESHORE RD + ARTHUR ST",,43.213460,-79.222312,,,,,,0
403,495,"259 LAKESHORE RD",,43.212743,-79.225975,,,,,,0
404,496,"LAKESHORE RD + WILCHER DR",,43.212022,-79.228113,,,,,,0
405,497,"LAKESHORE RD + STANLEY ST",,43.210980,-79.230218,,,,,,0
406,562,"GENEVA ST + LAKESHORE RD",,43.203930,-79.242290,,,,,,0
407,563,"GENEVA ST + GLENHOLME DR",,43.200537,-79.242083,,,,,,0
408,564,"557 GENEVA ST",,43.198685,-79.241980,,,,,,0
409,565,"GENEVA ST + ST COLUMBA DR",,43.196348,-79.241838,,,,,,0
410,566,"GENEVA ST + PARNALL SCHOOL",,43.194497,-79.241767,,,,,,0
412,568,"GENEVA ST + MILLWARD AVE",,43.191493,-79.241607,,,,,,0
413,569,"GENEVA ST + THOMPSON AVE",,43.188585,-79.241440,,,,,,0
414,570,"GENEVA ST + OVERHOLT ST",,43.185953,-79.241288,,,,,,0
415,571,"GENEVA ST + SCOTT ST",,43.184055,-79.241225,,,,,,0
416,572,"GENEVA ST + 359 GENEVA ST",,43.182338,-79.241122,,,,,,0
417,573,"GENEVA ST + KIWANAS APTS",,43.179390,-79.240972,,,,,,0
418,1237,"FAIRVIEW MALL + CIBC BANK",,43.176577,-79.242378,,,,,,0
419,1063,"GENEVA ST + NORTH SERVICE RD",,43.175900,-79.240837,,,,,,0
420,574,"GENEVA ST + ATWOOD ST",,43.174008,-79.240725,,,,,,0
421,576,"GENEVA ST + LINWOOD ST",,43.172808,-79.240685,,,,,,0
422,577,"GENEVA ST + JUNKIN ST",,43.171402,-79.240622,,,,,,0
423,578,"GENEVA ST + RUSSELL AVE",,43.170107,-79.240605,,,,,,0
424,579,"GENEVA ST + DACOTAH ST",,43.168565,-79.240518,,,,,,0
425,1344,"GENEVA ST + MAPLE STREET",,43.167247,-79.240447,,,,,,0
426,580,"GENEVA ST + WELLAND AVE",,43.166053,-79.240383,,,,,,0
427,581,"GENEVA ST + CHURCH ST",,43.163773,-79.240272,,,,,,0
428,582,"CHURCH ST + COURT ST",,43.162729,-79.244070,,,,,,0
429,610,"QUEENSTON ST + OAKDALE AVE",,43.163375,-79.231943,,,,,,0
430,1190,"QUEENSTON ST + PRINCE ST",,43.162683,-79.229153,,,,,,0
431,612,"QUEENSTON ST + RICHMOND AV",,43.161890,-79.225895,,,,,,0
432,613,"QUEENSTON ST + CLAYBURN AVE",,43.161428,-79.223630,,,,,,0
433,1191,"QUEENSTON ST + RAVINE RD",,43.160515,-79.219903,,,,,,0
434,1192,"QUEENSTON ST + TUFFORD MANOR",,43.160013,-79.218425,,,,,,0
435,1194,"QUEENSTON ST + LORNE ST",,43.159568,-79.217240,,,,,,0
436,616,"QUEENSTON ST + CAMERON RD",,43.158877,-79.215302,,,,,,0
437,617,"HARTZEL RD + LINCOLN AVE",,43.155483,-79.214523,,,,,,0
438,1195,"HARTZEL RD + THORNCLIFF DR",,43.153577,-79.214492,,,,,,0
439,1196,"HARTZEL RD + BURNESS DR",,43.151582,-79.214427,,,,,,0
440,620,"HARTZEL RD + ADMIRAL RD",,43.148992,-79.214363,,,,,,0
441,1197,"MERRITT ST + ROCKWOOD AV",,43.146010,-79.214173,,,,,,0
443,213,"MERRITT ST + ELM LANE",,43.142648,-79.214062,,,,,,0
444,623,"MERRITT ST + BESSEY ST",,43.135727,-79.211360,,,,,,0
445,1078,"99 MERRITT ST",,43.136298,-79.204890,,,,,,0
447,625,"MERRITT ST + MAPLECREST AVE",,43.134583,-79.200663,,,,,,0
448,1223,"FRONT  ST + TOWNLINE RD E",,43.133137,-79.199940,,,,,,0
449,627,"FRONT ST + ST DAVIDS RD",,43.129822,-79.200750,,,,,,0
451,628,"ORMOND ST N + BROCK ST",,43.131308,-79.199327,,,,,,0
453,629,"MERRITT ST + MAPLECREST AVE",,43.134710,-79.200940,,,,,,0
455,631,"MERRITT ST + BESSEY ST",,43.135862,-79.211702,,,,,,0
456,632,"GLENDALE AVE + MERRITT ST",,43.137363,-79.212910,,,,,,0
457,633,"GLENDALE AVE + BESSEY ST",,43.138278,-79.210637,,,,,,0
458,634,"GLENDALE AVE + KEELE ST",,43.139688,-79.206883,,,,,,0
459,635,"GLENDALE AVE + METRO COLLISION",,43.140622,-79.204405,,,,,,0
460,636,"WEMBLY DR + GLENDALE AVE",,43.142300,-79.202077,,,,,,0
461,637,"WEMBLY DR + ST AUGUSTINE DR",,43.143372,-79.202777,,,,,,0
462,638,"ST AUGUSTINE DR + WOODROW ST",,43.144143,-79.201608,,,,,,0
463,639,"WOODROW ST + GREEN MAPLE DR",,43.145940,-79.202102,,,,,,0
464,640,"WOODROW ST + STONEGATE DR",,43.147218,-79.202140,,,,,,0
466,1198,"ROCKWOOD AVE + CARRIAGE RD",,43.149380,-79.205400,,,,,,0
467,644,"ROCKWOOD AVE + FERNDALE AVE",,43.147172,-79.211877,,,,,,0
468,645,"ROCKWOOD AVE + GROVE AVE",,43.146598,-79.213577,,,,,,0
469,1199,"HARTZEL RD + ADMIRAL RD",,43.148458,-79.214220,,,,,,0
470,647,"HARTZEL RD + DUNVEGAN RD",,43.150898,-79.214317,,,,,,0
471,648,"HARTZEL RD + ALEXANDRA BLVD",,43.152535,-79.214348,,,,,,0
472,649,"HARTZEL RD + OAKWOOD AVE",,43.153998,-79.214403,,,,,,0
474,651,"QUEENSTON ST + CAMERON RD",,43.158994,-79.215267,,,,,,0
475,652,"QUEENSTON ST + MARMORA ST",,43.159800,-79.217598,,,,,,0
476,653,"QUEENSTON ST + GRANTHAM AVE S",,43.160645,-79.220112,,,,,,0
477,654,"QUEENSTON ST + WILLS ST",,43.161563,-79.224115,,,,,,0
480,657,"QUEENSTON ST + VINE ST S",,43.163058,-79.230235,,,,,,0
481,659,"CHURCH ST + QUEENSTON ST",,43.163773,-79.235583,,,,,,0
482,660,"CHURCH ST + NIAGARA ST",,43.164012,-79.238348,,,,,,0
484,458,"KING ST + CHURCH ST",,43.162820,-79.242195,,,,,,0
486,264,"CATHERINE ST + HETHERINGTON ST",,43.166085,-79.245628,,,,,,0
488,266,"CATHERINE ST + RUSSELL AVE",,43.169722,-79.245833,,,,,,0
489,267,"RUSSELL AVE + GEORGE ST",,43.170273,-79.247265,,,,,,0
490,268,"RUSSELL AVE + HENRY ST",,43.170233,-79.249142,,,,,,0
491,1214,"RUSSELL AV + LAKE ST",,43.170218,-79.250373,,,,,,0
492,270,"LAKE-CARLTON PLAZA",,43.171642,-79.252188,,,,,,0
493,271,"CARLTON ST + YORK ST",,43.170988,-79.253982,,,,,,0
494,272,"CARLTON ST + TAYLOR AVE",,43.170337,-79.255768,,,,,,0
495,273,"CARLTON ST + SHAKESPEARE AV",,43.169662,-79.257453,,,,,,0
496,274,"HAIG ST + CARLTON ST",,43.169837,-79.258828,,,,,,0
497,275,"HAIG ST + BYRON PL",,43.170862,-79.258868,,,,,,0
498,276,"HAIG ST + ALICE ST",,43.172340,-79.258917,,,,,,0
499,277,"HAIG ST + PERRY ST",,43.173557,-79.258995,,,,,,0
500,278,"HAIG ST + VENTURA DR",,43.174978,-79.259043,,,,,,0
501,279,"HAIG ST + CAYUGA ST",,43.176012,-79.259107,,,,,,0
502,280,"CAYUGA ST + MARGERY AVE",,43.176783,-79.256063,,,,,,0
503,281,"CAYUGA ST + THORNDALE AVE",,43.176417,-79.253130,,,,,,0
504,282,"SPRINGDALE AV + THORNDALE AV",,43.175320,-79.252607,,,,,,0
505,283,"SPRINGDALE AV + MOHAWK DR",,43.175360,-79.251685,,,,,,0
506,284,"NORTH SERVICE RD + YMCA DR",,43.178880,-79.250325,,,,,,0
507,1230,"WOOD ST + GENEVA ST",,43.179112,-79.240153,,,,,,0
508,1061,"WOOD ST + GREENMEADOW CT",,43.178403,-79.237903,,,,,,0
509,1064,"WOOD ST + CARLTON ST",,43.177157,-79.235512,,,,,,0
510,663,"CARLTON ST + ROLLS AVE",,43.177838,-79.232932,,,,,,0
511,664,"VINE ST + CARLTON ST",,43.179118,-79.230465,,,,,,0
512,665,"VINE ST + HILL PARK LANE",,43.181360,-79.230545,,,,,,0
513,666,"VINE ST + ALLAN DR",,43.183697,-79.230640,,,,,,0
514,667,"VINE ST + OLD PINE TRAIL",,43.185715,-79.230712,,,,,,0
515,668,"VINE ST + SCOTT ST",,43.187662,-79.230790,,,,,,0
516,669,"VINE ST + 398 VINE ST",,43.189292,-79.230847,,,,,,0
517,670,"VINE ST + DENSGROVE DR",,43.191390,-79.230973,,,,,,0
518,671,"VINE ST + REGENT DR",,43.192590,-79.231022,,,,,,0
519,672,"VINE ST + SOUTHDALE DR",,43.195475,-79.231165,,,,,,0
520,673,"VINE ST + LINWELL RD",,43.198113,-79.231243,,,,,,0
521,674,"VINE ST + ROSEMOUNT AVE",,43.199647,-79.231332,,,,,,0
522,675,"VINE ST + GLENVIEW AVE",,43.202445,-79.231418,,,,,,0
523,676,"VINE ST + PRESTON DR",,43.204050,-79.231507,,,,,,0
525,678,"VINE ST + PARNELL RD",,43.206743,-79.231593,,,,,,0
526,681,"VINE ST + PARNELL RD",,43.206680,-79.231785,,,,,,0
529,684,"VINE ST + GLENVIEW AVE",,43.201968,-79.231610,,,,,,0
530,685,"VINE ST + ROSEMOUNT AVE",,43.199687,-79.231482,,,,,,0
531,686,"VINE ST + LINWELL RD",,43.197907,-79.231403,,,,,,0
532,687,"VINE ST + TRACEY RD",,43.195380,-79.231292,,,,,,0
534,689,"VINE ST + DENSGROVE DR",,43.191413,-79.231108,,,,,,0
535,690,"VINE ST + SCOTT ST",,43.189197,-79.231037,,,,,,0
536,691,"VINE ST + 385 VINE ST",,43.186740,-79.230942,,,,,,0
537,692,"VINE ST + NELLO ST",,43.184882,-79.230862,,,,,,0
538,693,"VINE ST + WESTFIELD DR",,43.183243,-79.230783,,,,,,0
539,694,"VINE ST + HILL PARK LANE",,43.180685,-79.230687,,,,,,0
540,695,"VINE ST + CARLTON ST",,43.178848,-79.230640,,,,,,0
541,696,"CARLTON ST + 321 CARLTON ST",,43.178260,-79.232087,,,,,,0
542,697,"CARLTON ST + STANMARY DR",,43.177577,-79.234033,,,,,,0
543,698,"CARLTON ST + WOOD ST",,43.176965,-79.235758,,,,,,0
544,699,"CARLTON ST + GROTE ST",,43.175535,-79.240065,,,,,,0
545,286,"YMCA DR + HOME DEPOT",,43.179373,-79.246932,,,,,,0
546,322,"SPRINGDALE AV + THORNDALE AV",,43.175265,-79.252653,,,,,,0
547,323,"CAYUGA ST + THORNDALE AV",,43.176385,-79.253195,,,,,,0
548,324,"CAYUGA ST + MARGERY AV",,43.176727,-79.255705,,,,,,0
549,325,"CAYUGA ST + HAIG ST",,43.176235,-79.258957,,,,,,0
550,326,"HAIG ST + VENTURA DR",,43.174860,-79.259067,,,,,,0
551,327,"HAIG ST + PERRY ST",,43.173732,-79.258995,,,,,,0
552,328,"HAIG ST + VENTURA DR",,43.172188,-79.258957,,,,,,0
553,329,"HAIG ST + BYRON PL",,43.170807,-79.258877,,,,,,0
554,330,"HAIG ST + CARLTON ST",,43.169185,-79.258773,,,,,,0
555,331,"CARLTON ST + SHAKESPEARE AV",,43.169662,-79.257048,,,,,,0
556,332,"CARLTON ST + TAYLOR AVE",,43.170155,-79.255808,,,,,,0
557,333,"CARLTON ST + YORK ST",,43.171122,-79.253267,,,,,,0
558,334,"CARLTON ST + WILSON ST",,43.171688,-79.251728,,,,,,0
559,336,"RUSSELL AVE + HENRY ST",,43.170130,-79.249173,,,,,,0
560,337,"RUSSELL AVE + GEORGE ST",,43.170195,-79.247115,,,,,,0
561,338,"CATHERINE ST + RUSSELL AVE",,43.169923,-79.245812,,,,,,0
562,339,"CATHERINE ST + BEECH ST",,43.167382,-79.245652,,,,,,0
563,340,"CATHERINE ST + ALBERT ST",,43.165497,-79.245557,,,,,,0
564,341,"CATHERINE ST + WELLAND AVE",,43.164233,-79.245485,,,,,,0
565,700,"SCOTT ST + LAKE ST",,43.181248,-79.251033,,,,,,0
566,701,"SCOTT ST + NIHAN DR",,43.182028,-79.248838,,,,,,0
567,702,"SCOTT ST + SECORD DR",,43.182537,-79.247393,,,,,,0
568,703,"SCOTT ST + JOHN PAGE PARK",,43.183037,-79.245867,,,,,,0
569,704,"SCOTT ST + 198 SCOTT ST",,43.183713,-79.243800,,,,,,0
570,705,"SCOTT ST + GENEVA ST",,43.184778,-79.240637,,,,,,0
571,706,"SCOTT ST + ELSE ST",,43.185572,-79.238397,,,,,,0
572,707,"SCOTT ST + BONAVEM DR",,43.186263,-79.236442,,,,,,0
573,708,"SCOTT ST + VINE ST",,43.187495,-79.232913,,,,,,0
574,709,"SCOTT ST + GRANTHAM PLAZA",,43.188608,-79.229750,,,,,,0
576,711,"SCOTT ST + NIAGARA ST",,43.190405,-79.224790,,,,,,0
577,712,"SCOTT ST + JUBILEE DR",,43.191135,-79.222788,,,,,,0
578,713,"SCOTT ST + GRANTHAM AVE",,43.191637,-79.221357,,,,,,0
579,714,"SCOTT ST + EDINBURGH DR",,43.192685,-79.218393,,,,,,0
580,715,"SCOTT ST + CANADIAN MARTYRS SCHOOL",,43.193583,-79.215842,,,,,,0
581,716,"SCOTT ST + TAVISTOCK RD",,43.194203,-79.214030,,,,,,0
582,717,"SCOTT ST + BUNTING RD",,43.195077,-79.211478,,,,,,0
583,718,"SCOTT ST + ST LAWRENCE DR",,43.196222,-79.208292,,,,,,0
584,719,"SCOTT ST + WELLAND CANALS PKWY",,43.196873,-79.206463,,,,,,0
585,720,"DUNKELD AVE + 87 DUNKELD AVE",,43.195207,-79.205432,,,,,,0
586,721,"DUNKELD AVE + DUNBLANE AVE",,43.193313,-79.205303,,,,,,0
587,722,"DUNKELD AVE + 47 DUNKELD AVE",,43.191740,-79.205145,,,,,,0
588,723,"DUNKELD AVE + DUNELM DR",,43.189665,-79.204970,,,,,,0
590,725,"DUNKELD AVE + JENNIFER CR",,43.186160,-79.204787,,,,,,0
591,726,"RENDALE AVE + DORCHESTER BL",,43.184158,-79.204867,,,,,,0
592,727,"RENDALE AVE + ANCASTER BL",,43.184055,-79.202690,,,,,,0
593,728,"RENDALE AVE + CUSHMAN RD",,43.184127,-79.200575,,,,,,0
595,730,"CUSHMAN RD + WELLAND AVE",,43.180597,-79.200012,,,,,,0
599,1253,"WELLAND AVE + BRIARFIELD PLAZA",,43.176862,-79.209532,,,,,,0
600,735,"WELLAND AVE + NEILSON AVE",,43.174190,-79.216870,,,,,,0
604,744,"CARLTON ST + OBLATE ST",,43.181170,-79.223917,,,,,,0
605,394,"CARLTON ST + NIAGARA ST",,43.180263,-79.226578,,,,,,0
606,746,"CARLTON ST + VINE ST",,43.178912,-79.230218,,,,,,0
607,158,"ST PAUL ST W + MEMORIAL PARK",,43.154618,-79.246090,,,,,,0
608,159,"ST PAUL ST W + HENRIETTA ST",,43.150112,-79.248393,,,,,,0
609,160,"ST PAUL ST W + MCDONALD ST",,43.149030,-79.250095,,,,,,0
610,747,"ST PAUL ST W + DEXTER ST",,43.148077,-79.251987,,,,,,0
611,748,"ST PAUL ST W + GREAT WESTERN ST",,43.147528,-79.253210,,,,,,0
612,749,"ST PAUL ST W + MERIGOLD ST",,43.146638,-79.255578,,,,,,0
613,750,"ST PAUL ST W + LLOYD ST",,43.146185,-79.256850,,,,,,0
614,751,"ST PAUL ST W + EDITH ST",,43.145367,-79.259227,,,,,,0
615,178,"LOUTH ST + 230 LOUTH ST",,43.147123,-79.260037,,,,,,0
616,179,"LOUTH ST + RIDLEY RD",,43.149062,-79.260100,,,,,,0
617,1283,"LOUTH ST + CRESTCOMBE RD",,43.151033,-79.260195,,,,,,0
618,180,"LOUTH ST + VINTAGE CR",,43.152162,-79.262715,,,,,,0
620,1215,"BENFIELD DR + BENFIELD INDUSTRIAL PLAZA",,43.150502,-79.263462,,,,,,0
621,182,"BENFIELD DR + LOUTH ST",,43.151837,-79.262977,,,,,,0
622,183,"LOUTH ST + RIDLEY RD",,43.149365,-79.260228,,,,,,0
623,184,"LOUTH ST + ST PAUL ST W",,43.145597,-79.260045,,,,,,0
624,752,"ST PAUL ST W + LOUTH ST",,43.145010,-79.260467,,,,,,0
625,753,"ST PAUL ST W + SEYMOUR-HANNAH ARENA",,43.143960,-79.262350,,,,,,0
626,754,"ST PAUL ST W + FREDERICK ST",,43.143722,-79.264448,,,,,,0
627,755,"VANSICKLE RD + ST PAUL ST W",,43.142705,-79.270217,,,,,,0
628,756,"VANSICKLE RD + METEOR ST",,43.140377,-79.270090,,,,,,0
629,757,"VANSICKLE RD + STRADA BLVD",,43.138350,-79.270003,,,,,,0
630,758,"VANSICKLE RD + RYKERT ST",,43.136427,-79.269915,,,,,,0
631,759,"VANSICKLE RD + BRIARWOOD DR",,43.133447,-79.269843,,,,,,0
633,770,"MACTURNBULL DR + VANSICKLE RD",,43.131737,-79.269367,,,,,,0
634,771,"MACTURNBULL DR + WESTLAND ST",,43.131808,-79.266697,,,,,,0
635,772,"WESTLAND ST + MARIA ST",,43.133200,-79.266513,,,,,,0
637,774,"WESTLAND ST + RYKERT ST",,43.137555,-79.265997,,,,,,0
638,775,"RYKERT ST + WELSTEAD ST",,43.138422,-79.263748,,,,,,0
640,777,"RYKERT ST + LOUTH ST",,43.139668,-79.260140,,,,,,0
641,778,"RYKERT ST + EDITH ST",,43.140868,-79.256962,,,,,,0
642,779,"RYKERT ST + CHURCHILL ST",,43.141393,-79.255538,,,,,,0
643,1203,"RYKERT ST + CUMMING ST",,43.142332,-79.253075,,,,,,0
644,780,"CUMMING ST + PELHAM RD",,43.142140,-79.251097,,,,,,0
645,164,"PELHAM RD + KENT ST",,43.141028,-79.251207,,,,,,0
646,165,"PELHAM RD + WALLACE ST",,43.138318,-79.251930,,,,,,0
647,166,"PELHAM RD + PARKER ST",,43.136378,-79.252923,,,,,,0
648,167,"PELHAM RD + KIRK ST",,43.134343,-79.254100,,,,,,0
649,781,"GLENDALE AVE + PELHAM RD",,43.133312,-79.254378,,,,,,0
651,783,"GLENDALE AVE + MARSDALE DR",,43.134860,-79.242290,,,,,,0
652,784,"GLENDALE AVE + GLENRIDGE AVE",,43.134487,-79.239508,,,,,,0
653,785,"GLENDALE AVE + WAKIL DR",,43.134240,-79.237188,,,,,,0
654,786,"GLENDALE AVE + VALERIE DR",,43.133892,-79.234280,,,,,,0
661,793,"GLENDALE AVE + WAKIL DR",,43.134392,-79.237553,,,,,,0
662,794,"GLENDALE AVE + GLENRIDGE AVE",,43.134670,-79.239508,,,,,,0
663,795,"GLENDALE AVE + MARSDALE DR",,43.135003,-79.242465,,,,,,0
664,796,"GLENDALE AVE + RIVERVIEW BLVD",,43.134217,-79.246002,,,,,,0
665,797,"GLENDALE AVE + PELHAM RD",,43.133480,-79.254420,,,,,,0
666,798,"PELHAM RD + DAVID ST",,43.134693,-79.253910,,,,,,0
667,799,"PELHAM RD + PARKER ST",,43.136060,-79.253115,,,,,,0
668,800,"PELHAM RD + MCKAY ST",,43.138290,-79.251890,,,,,,0
669,801,"PELHAM RD + WHITWORTH ST",,43.140948,-79.251223,,,,,,0
670,1284,"RYKERT ST + LEEPER ST",,43.142864,-79.251811,,,,,,0
675,806,"RYKERT ST + WELSTEAD DR",,43.138587,-79.263457,,,,,,0
676,807,"RYKERT ST + WESTLAND ST",,43.137713,-79.265973,,,,,,0
677,808,"WESTLAND ST + MCBRIDE DR",,43.136435,-79.265925,,,,,,0
678,809,"WESTLAND ST + MARIA ST",,43.133448,-79.266617,,,,,,0
679,810,"WESTLAND ST + MACTURNBULL DR",,43.132008,-79.266545,,,,,,0
682,822,"VANSICKLE RD + RYKERT ST",,43.136163,-79.269900,,,,,,0
683,1222,"VANSICKLE RD + STRADA BLVD",,43.138103,-79.269955,,,,,,0
684,823,"VANSICKLE RD + METEOR ST",,43.140480,-79.270050,,,,,,0
685,824,"VANSICKLE RD + ST PAUL ST W",,43.143038,-79.270162,,,,,,0
686,1227,"ST PAUL ST W + FREDERICK ST",,43.143682,-79.264543,,,,,,0
687,826,"ST PAUL ST W + SEYMOUR HANNAH SPORTS COMPLEX",,43.144048,-79.261983,,,,,,0
688,827,"ST PAUL ST W + LOUTH ST",,43.144945,-79.260442,,,,,,0
689,828,"ST PAUL ST W + CHURCHILL ST",,43.145685,-79.258153,,,,,,0
690,1221,"ST PAUL ST W + LLOYD ST",,43.146153,-79.256865,,,,,,0
691,190,"ST PAUL ST W + LEEPER ST",,43.146965,-79.254593,,,,,,0
692,191,"ST PAUL ST W + DEXTER ST",,43.148102,-79.251723,,,,,,0
696,829,"GLENRIDGE AVE + OAKRIDGE AVE",,43.137960,-79.239270,,,,,,0
697,830,"GLENRIDGE AVE + LARCHWOOD DR",,43.136442,-79.239160,,,,,,0
698,842,"GLENRIDGE AVE + GLENDALE AVE",,43.134010,-79.238887,,,,,,0
699,832,"GLENRIDGE AVE + VICTOR BLVD",,43.131110,-79.238850,,,,,,0
700,833,"GLENRIDGE AVE + SOVEREIGN DR",,43.129377,-79.238802,,,,,,0
701,834,"GLENRIDGE AVE + HOTEL DIEU SHAVER HOSPITAL",,43.121533,-79.243458,,,,,,0
704,1067,"ISAAC BROCK BLVD + FLORA EGERTER WAY",,43.116788,-79.246788,,,,,,0
706,231,"BROCK UNIVERSITY DAYCARE",,43.116573,-79.249935,,,,,,0
707,1206,"ISAAC BROCK BLVD + ZONE 2 PARKING LOT",,43.116370,-79.247028,,,,,,0
708,838,"GLENRIDGE AVE + EAST ACADEMIC COMPLEX",,43.118037,-79.243260,,,,,,0
709,1075,"GLENRIDGE AVE + JOHN MACDONELL ST",,43.119753,-79.243332,,,,,,0
710,839,"GLENRIDGE AVE + HOTEL SHAVER HOSPITAL",,43.122208,-79.243418,,,,,,0
711,840,"GLENRIDGE AVE + WOODSIDE DR",,43.128940,-79.238698,,,,,,0
712,841,"GLENRIDGE AVE + VICTOR BLVD",,43.131188,-79.238850,,,,,,0
713,844,"GLENRIDGE AVE + LARCHWOOD DR",,43.136298,-79.239063,,,,,,0
714,845,"GLENRIDGE AVE + OAKRIDGE AVE",,43.138087,-79.239120,,,,,,0
715,846,"WESTCHESTER CR + HWY 406",,43.156915,-79.238365,,,,,,0
716,847,"WESTCHESTER CR + PRINCESS ST",,43.158497,-79.233405,,,,,,0
717,848,"WESTCHESTER CR + COLLIER ST",,43.158408,-79.231578,,,,,,0
718,849,"WESTCHESTER CR + OAKDALE AVE",,43.158432,-79.228398,,,,,,0
719,850,"WESTCHESTER CR + TERRACE HILL RD",,43.159267,-79.226125,,,,,,0
720,851,"WESTCHESTER CR + QUEENSTON ST",,43.160960,-79.225157,,,,,,0
721,852,"QUEENSTON ST + HARTZEL RD",,43.158647,-79.213703,,,,,,0
722,853,"QUEENSTON ST + DERBY LANE",,43.158670,-79.211725,,,,,,0
723,854,"BUNTING RD + CHLOE ST",,43.161070,-79.209548,,,,,,0
724,855,"124 BUNTING ROAD",,43.162898,-79.209580,,,,,,0
725,856,"BUNTING RD + EASTCHESTER AV",,43.166022,-79.209683,,,,,,0
726,857,"BUNTING RD + DIEPPE RD",,43.169440,-79.209730,,,,,,0
730,861,"BUNTING RD + WELLAND AVE",,43.177800,-79.210135,,,,,,0
731,862,"BUNTING RD + ROEHAMPTON AVE",,43.179325,-79.210238,,,,,,0
732,863,"BUNTING RD + BERKLEY PARK",,43.180700,-79.210310,,,,,,0
733,864,"BUNTING RD + BERKLEY DR",,43.183797,-79.210454,,,,,,0
734,865,"BUNTING RD + CARLTON ST",,43.185342,-79.210510,,,,,,0
735,866,"BUNTING RD + RAE ST",,43.188243,-79.210668,,,,,,0
736,867,"BUNTING RD + BERMUDA DR",,43.191310,-79.210795,,,,,,0
737,868,"BUNTING RD + SCOTT ST",,43.195220,-79.210978,,,,,,0
738,869,"BUNTING RD + HELM ST",,43.197477,-79.211090,,,,,,0
739,870,"BUNTING RD + LOCKVIEW CR",,43.199853,-79.211200,,,,,,0
740,871,"BUNTING RD + MATHIES ST",,43.203192,-79.211352,,,,,,0
741,872,"BUNTING RD + LINWELL RD",,43.204845,-79.211400,,,,,,0
742,403,"NIAGARA ST + RICHELIEU DR",,43.202015,-79.221612,,,,,,0
743,404,"NIAGARA ST + HEYWOOD AV",,43.203835,-79.220610,,,,,,0
744,1229,"NIAGARA ST + TECUMSEH STREET",,43.205305,-79.220022,,,,,,0
745,406,"NIAGARA ST + FAIRVIEW AVE",,43.206775,-79.219458,,,,,,0
747,408,"NIAGARA ST + CHORLEY AVE",,43.208913,-79.218640,,,,,,0
748,409,"NIAGARA ST + PARNELL RD",,43.211170,-79.217892,,,,,,0
750,428,"NIAGARA ST + CHERRYLANE DR",,43.208350,-79.219005,,,,,,0
751,429,"NIAGARA ST + GRACE MENNONITE CHURCH",,43.206433,-79.219728,,,,,,0
753,431,"NIAGARA ST + HEYWOOD AVE",,43.203803,-79.220753,,,,,,0
754,432,"NIAGARA ST + RICHELIEU DR",,43.202262,-79.221603,,,,,,0
755,890,"BUNTING RD + BRUCEDALE AVE",,43.203207,-79.211360,,,,,,0
756,891,"BUNTING RD + LOCKVIEW CR",,43.199948,-79.211217,,,,,,0
757,892,"BUNTING RD + ROCHELLE DR",,43.197930,-79.211153,,,,,,0
758,893,"BUNTING RD + SCOTT ST",,43.195562,-79.211042,,,,,,0
759,894,"BUNTING RD + NORTHWOOD DR",,43.191175,-79.210852,,,,,,0
760,895,"BUNTING RD + SOUTHWOOD DR",,43.188250,-79.210740,,,,,,0
761,896,"BUNTING RD + CARLTON ST",,43.185310,-79.210628,,,,,,0
762,897,"341 BUNTING RD",,43.182655,-79.210485,,,,,,0
763,898,"BUNTING RD + RIDGEVIEW AVE",,43.180677,-79.210398,,,,,,0
764,899,"BUNTING RD + ROEHAMPTON AVE",,43.179112,-79.210358,,,,,,0
765,900,"BUNTING RD + WELLAND AVE",,43.177347,-79.210272,,,,,,0
766,901,"BUNTING RD + ONTARIO WORKS",,43.174247,-79.210135,,,,,,0
767,902,"BUNTING RD + 221 BUNTING RD",,43.172602,-79.210080,,,,,,0
768,903,"BUNTING RD + DIEPPE RD",,43.169265,-79.209913,,,,,,0
769,904,"BUNTING RD + DOUGLAS PARK",,43.166013,-79.209802,,,,,,0
771,906,"BUNTING RD + MILTON RD",,43.163860,-79.209730,,,,,,0
772,907,"BUNTING RD + 91 BUNTING RD",,43.160618,-79.209595,,,,,,0
773,908,"QUEENSTON ST + DERBY LANE",,43.158687,-79.211122,,,,,,0
774,909,"WESTCHESTER CR + HERRICK AVE",,43.160498,-79.225570,,,,,,0
775,910,"WESTCHESTER CR + TERRACE HILL RD",,43.159083,-79.226587,,,,,,0
776,1287,"WESTCHESTER CR + OAKDALE AVE",,43.158560,-79.228765,,,,,,0
777,912,"WESTCHESTER CR + COLLIER ST",,43.158583,-79.231943,,,,,,0
778,913,"WESTCHESTER CR + BLAIN PL",,43.158647,-79.233333,,,,,,0
779,914,"WESTCHESTER CR + GENEVA ST",,43.156938,-79.238882,,,,,,0
781,916,"EASTCHESTER AVE + MITCHELL ST",,43.162000,-79.223900,,,,,,0
782,917,"EASTCHESTER AV + YALE CR",,43.162605,-79.222168,,,,,,0
783,918,"EASTCHESTER AV + GRANTHAM AV S",,43.163296,-79.220183,,,,,,0
785,920,"EASTCHESTER AVE + MARMORA ST",,43.164178,-79.217828,,,,,,0
786,921,"EASTCHESTER AVE + LORNE ST",,43.164672,-79.216517,,,,,,0
787,922,"EASTCHESTER AVE + LAIRD DR",,43.165275,-79.214888,,,,,,0
788,923,"EASTCHESTER AVE + ANNETTE ST",,43.165887,-79.213252,,,,,,0
791,926,"QUEENSTON ST + SPRING ST",,43.159608,-79.206417,,,,,,0
792,927,"SPRING ST + ROSEDALE AVE",,43.157550,-79.204812,,,,,,0
793,928,"ROSEDALE AV + GREENWOOD AVE",,43.156565,-79.203302,,,,,,0
794,929,"DUNDONALD ST + BLOOMFIELD AV",,43.155515,-79.202697,,,,,,0
796,931,"BLOOMFIELD AVE + WOODROW ST",,43.155340,-79.206337,,,,,,0
797,932,"BLOOMFIELD AVE + BUNTING RD",,43.155293,-79.209230,,,,,,0
798,933,"FERNDALE AVE + BATTERSEA AVE",,43.154593,-79.212377,,,,,,0
799,934,"FERNDALE AVE + ALEXANDRA BLVD",,43.152790,-79.212305,,,,,,0
800,935,"FERNDALE AVE + DUNVEGAN RD",,43.151177,-79.212250,,,,,,0
801,936,"DUNVEGAN RD + ALEXANDRA BLVD",,43.151327,-79.208045,,,,,,0
802,937,"DUNVEGAN RD + WOODROW ST",,43.151272,-79.203317,,,,,,0
804,943,"MERRITT ST + SEYMOUR AVE",,43.144382,-79.214047,,,,,,0
805,944,"MERRITT ST + ROCKWOOD AVE",,43.146265,-79.214085,,,,,,0
806,945,"ROCKWOOD AVE + NESTOR ST",,43.147402,-79.211105,,,,,,0
807,946,"ROCKWOOD AVE + PARK AVE",,43.148062,-79.209230,,,,,,0
808,947,"ROCKWOOD AVE + CARRIAGE RD",,43.149006,-79.206473,,,,,,0
809,1248,"ROCKWOOD AVE + WOODROW ST",,43.149698,-79.202880,,,,,,0
810,949,"WOODROW ST + DUNVEGAN RD",,43.151257,-79.203047,,,,,,0
811,950,"DUNVEGAN RD + ALEXANDRA BLVD",,43.151447,-79.208260,,,,,,0
812,951,"DUNVEGAN RD + FERNDALE AVE",,43.151105,-79.212027,,,,,,0
813,952,"FERNDALE AVE + ALEXANDRA BLVD",,43.152607,-79.212250,,,,,,0
814,953,"FERNDALE AVE + BATTERSEA AVE",,43.154848,-79.212305,,,,,,0
815,954,"BLOOMFIELD AVE + LAWSON ST",,43.155325,-79.208418,,,,,,0
816,955,"BLOOMFIELD AVE + WOODROW ST",,43.155357,-79.206687,,,,,,0
818,957,"BLOOMFIELD AVE + DUNDONALD ST",,43.155420,-79.202840,,,,,,0
819,958,"ROSEDALE AV + BEATRICE ST",,43.156470,-79.202983,,,,,,0
820,745,"ROSEDALE AV + SPRING ST",,43.157415,-79.204748,,,,,,0
821,1249,"SPRING ST + QUEENSTON ST",,43.159625,-79.206187,,,,,,0
822,960,"QUEENSTON ST + BUNTING RD",,43.159028,-79.209150,,,,,,0
824,1250,"EASTCHESTER AVE + ANNETTE ST",,43.166007,-79.213100,,,,,,0
826,963,"EASTCHESTER AVE + PERTH ST",,43.164758,-79.216430,,,,,,0
827,964,"EASTCHESTER AVE + CHELSEA ST",,43.163828,-79.218942,,,,,,0
829,966,"EASTCHESTER AVE + MITCHELL ST",,43.162318,-79.223122,,,,,,0
830,1251,"EASTCHESTER AVE + QUEENSTON ST",,43.161770,-79.224663,,,,,,0
831,223,"BURLEIGH HILL DR + WARKDALE DR",,43.133717,-79.218775,,,,,,0
832,224,"BURLEIGH HILL DR + DALECREST AVE",,43.128503,-79.215555,,,,,,0
833,967,"COLLIER RD + BRODERICK AVE",,43.126382,-79.215508,,,,,,0
834,968,"COLLIER RD + SULLIVAN AVE",,43.122510,-79.215405,,,,,,0
835,969,"COLLIER RD + ELGIN ST",,43.119863,-79.215357,,,,,,0
836,971,"COLLIER RD + RICHMOND ST",,43.117663,-79.215293,,,,,,0
837,972,"RICHMOND ST + RICHMOND ST SCHOOL",,43.117187,-79.212982,,,,,,0
838,973,"93 RICHMOND ST",,43.117250,-79.210342,,,,,,0
839,974,"RICHMOND ST + CROMPTON BLVD",,43.117322,-79.207800,,,,,,0
840,975,"RICHMOND ST + QUEEN ST",,43.117400,-79.205232,,,,,,0
842,977,"RICHMOND ST + CLEVELAND ST",,43.117497,-79.200645,,,,,,0
844,978,"61 ORMOND ST S",,43.119903,-79.198310,,,,,,0
845,979,"ORMOND ST S + PORTLAND ST",,43.121342,-79.198803,,,,,,0
846,980,"ORMOND ST S + CLAIRMONT ST",,43.123265,-79.198850,,,,,,0
847,981,"ORMOND ST S + ALBERT ST E",,43.124815,-79.198947,,,,,,0
848,982,"ORMOND ST N + REGENT ST",,43.126762,-79.199033,,,,,,0
849,983,"ORMOND ST N + THOROLD ARENA",,43.127858,-79.199073,,,,,,0
850,984,"ORMOND ST N + THOROLD HIGH SCHOOL",,43.129178,-79.199160,,,,,,0
851,985,"FRONT ST + THOROLD ARENA",,43.129130,-79.200773,,,,,,0
852,986,"FRONT ST + ALBERT ST",,43.125081,-79.200763,,,,,,0
853,987,"FRONT ST + CLAIRMONT ST",,43.123862,-79.200663,,,,,,0
856,990,"ALBERT ST + QUEEN ST",,43.124855,-79.204843,,,,,,0
857,991,"QUEEN ST + ANN ST",,43.126603,-79.205128,,,,,,0
858,992,"QUEEN ST + WATER ST",,43.127978,-79.205200,,,,,,0
859,993,"QUEEN ST + ST DAVIDS RD",,43.129362,-79.205280,,,,,,0
860,1290,"TOWNLINE RD W + QUEEN ST N",,43.130912,-79.205708,,,,,,0
862,994,"TOWNLINE RD + ST DAVIDS RD",,43.129834,-79.208804,,,,,,0
864,996,"ST DAVIDS RD + ALLANBURG RD S",,43.128018,-79.213458,,,,,,0
865,997,"ST DAVIDS RD + BURLEIGH HILL DR",,43.127358,-79.215087,,,,,,0
866,237,"BURLEIGH HILL DR + DALECREST AVE",,43.128495,-79.215477,,,,,,0
870,235,"ST DAVIDS RD + MARMAC DR",,43.126158,-79.217972,,,,,,0
871,236,"ST DAVIDS RD + COLLIER RD N",,43.126922,-79.215930,,,,,,0
872,225,"ST DAVIDS RD + BURLEIGH HILL DR",,43.126667,-79.216588,,,,,,0
873,226,"ST DAVIDS RD + MARMAC DR",,43.126023,-79.218592,,,,,,0
874,227,"ST DAVIDS RD + BARBICAN GT",,43.124330,-79.223213,,,,,,0
875,228,"SIR ISAAC BROCK WAY + SCHMON PKWY",,43.117660,-79.241840,,,,,,0
913,168,"PELHAM RD + GLENDALE AVE",,43.133099,-79.255069,,,,,,0
915,873,"LINWELL RD + NIAGARA ST",,43.200593,-79.223400,,,,,,0
916,874,"LINWELL RD + INA GRAFTON",,43.199933,-79.225140,,,,,,0
917,875,"LINWELL RD + GORDON PL",,43.198828,-79.228152,,,,,,0
918,876,"LINWELL RD + VINE ST",,43.197502,-79.231880,,,,,,0
919,877,"LINWELL RD + SHARON ST",,43.196993,-79.233333,,,,,,0
920,878,"LINWELL RD + WALKER AVE",,43.196167,-79.235798,,,,,,0
921,879,"LINWELL RD + LYNN ST",,43.195587,-79.237490,,,,,,0
922,880,"LINWELL RD + DUNCAN DR",,43.195173,-79.238690,,,,,,0
923,881,"LINWELL RD + GENEVA ST",,43.193812,-79.242680,,,,,,0
925,884,"LINWELL RD + LYNN ST",,43.195538,-79.237547,,,,,,0
926,885,"LINWELL RD + RODGER ST",,43.196500,-79.234598,,,,,,0
927,886,"LINWELL RD + VINE ST",,43.197508,-79.231657,,,,,,0
928,887,"LINWELL RD + GORDON PL",,43.198407,-79.229122,,,,,,0
929,888,"LINWELL RD + MAPLEWOOD DR",,43.199813,-79.225307,,,,,,0
930,889,"LINWELL RD + NIAGARA ST",,43.200728,-79.222803,,,,,,0
934,1025,"SULLIVAN AVE + MCMANN DR",,43.122932,-79.209078,,,,,,0
935,1026,"SULLIVAN AVE + WINSLOW AVE",,43.122932,-79.211645,,,,,,0
936,1027,"SULLIVAN AVE + COLLIER RD",,43.122923,-79.214928,,,,,,0
937,1028,"SULLIVAN AVE + TUPPER DR",,43.122288,-79.220705,,,,,,0
939,1030,"TUPPER DR + MCDONAUGH CR",,43.118712,-79.219140,,,,,,0
940,1031,"RICHMOND ST + JULIE DR",,43.117043,-79.217828,,,,,,0
941,1032,"COLLIER RD + RICHMOND ST",,43.117138,-79.215770,,,,,,0
942,1209,"CONFEDERATION AV + COLLIER RD",,43.110232,-79.215508,,,,,,0
943,1034,"CONFEDERATION AV + KEEFER RD",,43.110185,-79.218107,,,,,,0
944,1035,"CONFEDERATION AV + SUMMERS DR",,43.111003,-79.221087,,,,,,0
945,1036,"SUMMERS DR + DEVINE CR",,43.112060,-79.220070,,,,,,0
946,1037,"SUMMERS DR + REMIGIO CT",,43.113625,-79.220070,,,,,,0
947,1038,"SUMMERS DR + SILVERCREST CT",,43.114667,-79.221652,,,,,,0
948,1039,"SUMMERS DR + CONFEDERATION AVE",,43.113777,-79.224910,,,,,,0
950,1041,"KEEFER RD + CALCOTT CT",,43.112212,-79.228303,,,,,,0
951,1042,"KEEFER RD + MANLEY CR",,43.110613,-79.230028,,,,,,0
952,1043,"KEEFER RD + TRAIL TO CONROY CR",,43.108897,-79.228883,,,,,,0
954,1045,"DECEW RD + RICHMOND ST",,43.107482,-79.231575,,,,,,0
957,1294,"3460 SCHMON PKWY",,43.113369,-79.238613,,,,,,0
958,1205,"SCHMON PKWY + THE LOFTS",,43.115477,-79.238928,,,,,,0
961,1286,"SCHMON PKWY + THE LOFTS",,43.114985,-79.238859,,,,,,0
962,999,"SCHMON PKWY + ENBRIDGE",,43.113372,-79.238667,,,,,,0
963,1207,"SCHMON PKWY + 3340 SCHMON PKWY",,43.111742,-79.239850,,,,,,0
965,1003,"KEEFER RD + CONROY CR",,43.108643,-79.228200,,,,,,0
966,1004,"KEEFER RD + MANLEY CR",,43.110502,-79.229940,,,,,,0
967,1005,"KEEFER RD + CALCOTT CT",,43.112100,-79.228470,,,,,,0
968,1006,"KEEFER RD + CONFEDERATION AV",,43.113530,-79.225315,,,,,,0
969,1007,"SUMMERS DR + CRYSLER CR",,43.114095,-79.224092,,,,,,0
970,1008,"SUMMERS DR + SILVERCREST CT",,43.114762,-79.221945,,,,,,0
972,1011,"SUMMERS DR + CONFEDERATION AV",,43.111210,-79.221072,,,,,,0
973,1012,"CONFEDERATION AV + KEEFER RD",,43.110128,-79.217940,,,,,,0
974,1296,"CONFEDERATION AV + COLLIER RD",,43.110153,-79.215563,,,,,,0
975,1013,"RICHMOND ST + COLLIER RD",,43.117250,-79.215858,,,,,,0
978,1016,"TUPPER DR + NOTTINGHAM ST",,43.120006,-79.219133,,,,,,0
979,1017,"TUPPER DR + SULLIVAN AVE",,43.121973,-79.220932,,,,,,0
980,1018,"SULLIVAN AVE + COLLIER RD N",,43.122860,-79.215723,,,,,,0
981,1019,"SULLIVAN AVE + WINSLOW CR",,43.122892,-79.211797,,,,,,0
982,1021,"SULLIVAN AVE + WHYTE ST S",,43.122917,-79.207775,,,,,,0
983,1022,"SULLIVAN AVE + QUEEN ST",,43.122932,-79.205510,,,,,,0
985,2201,"NIAGARA FALLS RD + MACKAN ST",,43.105790,-79.192238,,,,,,0
986,2202,"NIAGARA FALLS RD + MORTON ST",,43.105782,-79.195178,,,,,,0
987,2203,"NIAGARA FALLS RD + ALLANBURG RD",,43.104757,-79.198875,,,,,,0
988,2204,"CLARA ST + TAYLOR ST",,43.100727,-79.197230,,,,,,0
989,2205,"CLARA ST + MORTON ST",,43.100775,-79.195417,,,,,,0
990,2206,"MORTON ST + DEERFIELD PKWY",,43.097867,-79.195092,,,,,,0
991,2207,"DEERFIELD PKWY + ALLANBURG RD",,43.097215,-79.199343,,,,,,0
992,2208,"ALLANBURG RD + HAYES RD",,43.094330,-79.199550,,,,,,0
993,2209,"ALLANBURG RD + HODGKINS AVE",,43.091485,-79.199518,,,,,,0
994,161,"PELHAM RD + MONCK ST",,43.147298,-79.250690,,,,,,0
995,162,"PELHAM RD + CHETWOOD ST",,43.144620,-79.250802,,,,,,0
996,163,"PELHAM RD + CUMMING ST",,43.142354,-79.250929,,,,,,0
997,170,"PELHAM RD + LOUTH ST",,43.130760,-79.259155,,,,,,0
998,171,"LOUTH ST + VALLEY RD",,43.132802,-79.259425,,,,,,0
999,172,"LOUTH ST + NIAGARA OLYMPIC TRACK FIELD CLUB",,43.134575,-79.259488,,,,,,0
1000,173,"LOUTH ST + VALLEY RD",,43.136705,-79.259583,,,,,,0
1001,174,"LOUTH ST + DSBN ACADEMY",,43.138485,-79.259647,,,,,,0
1002,175,"LOUTH ST + RYKERT ST",,43.139677,-79.259703,,,,,,0
1003,176,"LOUTH ST + CHETWOOD ST",,43.142983,-79.259862,,,,,,0
1004,177,"LOUTH ST + ST PAUL ST W",,43.144835,-79.259933,,,,,,0
1005,185,"CHETWOOD ST + LOUTH ST",,43.142920,-79.259480,,,,,,0
1006,186,"CHETWOOD ST + EDITH ST",,43.143357,-79.258233,,,,,,0
1007,1216,"CHETWOOD ST + CHURCHILL ST",,43.143810,-79.256913,,,,,,0
1008,187,"CHETWOOD ST + LLOYD ST",,43.144255,-79.255665,,,,,,0
1009,188,"CHETWOOD ST + MERIGOLD ST",,43.144723,-79.254378,,,,,,0
1010,189,"MERIGOLD ST + ST PAUL ST W",,43.146463,-79.255380,,,,,,0
1011,288,"SCOTT ST + LAKE ST",,43.180868,-79.252432,,,,,,0
1012,289,"SCOTT ST + ELMA ST",,43.180048,-79.254378,,,,,,0
1013,290,"SCOTT ST + MEADOWVALE DR",,43.178777,-79.257533,,,,,,0
1014,291,"ST HELENA ST + SENIORS HOME",,43.179795,-79.259678,,,,,,0
1015,292,"ST HELENA ST + MEADOWVALE DR",,43.179548,-79.261363,,,,,,0
1016,293,"MEADOWVALE DR + DAWN RD",,43.179660,-79.262977,,,,,,0
1017,294,"MEADOWVALE DR + DOROTHY ST",,43.181042,-79.266800,,,,,,0
1018,295,"LINWELL RD + JULIANA CR",,43.185850,-79.263803,,,,,,0
1019,296,"LINWELL RD + CENTENNIAL DR",,43.186527,-79.261983,,,,,,0
1020,297,"LINWELL RD + ERNEST ST",,43.187408,-79.259775,,,,,,0
1021,298,"LINWELL RD + LAFAYETTE DR",,43.188965,-79.256150,,,,,,0
1022,299,"LINWELL RD + LAKEPORT RD",,43.189522,-79.254783,,,,,,0
1023,1295,"LAKEPORT RD + EDEN HIGH SCHOOL",,43.190087,-79.253282,,,,,,0
1024,301,"LINWELL RD + LAKE ST",,43.190833,-79.251358,,,,,,0
1025,302,"LINWELL RD + LINFIELD DR",,43.191588,-79.249363,,,,,,0
1026,303,"LINWELL RD + GRANTHAM OPTIMIST",,43.192392,-79.247107,,,,,,0
1027,304,"LINWELL RD + SHERMAN DR",,43.193225,-79.244405,,,,,,0
1028,305,"LINWELL RD + SHERMAN DR",,43.193257,-79.244548,,,,,,0
1029,306,"LINWELL RD + HOWARD AVE",,43.192463,-79.247155,,,,,,0
1030,307,"LINWELL RD + LINFIELD DR",,43.191612,-79.249538,,,,,,0
1031,308,"LINWELL RD + EDEN SECONDARY SCHOOL",,43.190357,-79.252885,,,,,,0
1032,309,"LINWELL RD + LAKEPORT RD",,43.189602,-79.254703,,,,,,0
1033,310,"LINWELL RD + BILL BURGOYNE ARENA",,43.188560,-79.257335,,,,,,0
1034,311,"LINWELL RD + LINWELL MANOR",,43.187018,-79.260808,,,,,,0
1035,312,"LINWELL RD + ONTARIO ST",,43.185843,-79.263963,,,,,,0
1036,313,"MEADOWVALE DR + DOROTHY ST",,43.180565,-79.266927,,,,,,0
1037,1345,"MEADOWVALE RD + DAWN RD",,43.179643,-79.263097,,,,,,0
1038,314,"MEADOWVALE DR + ST HELENA ST",,43.179563,-79.261110,,,,,,0
1039,315,"ST HELENA ST + MEADOWVALE DR",,43.179818,-79.259640,,,,,,0
1040,316,"SCOTT ST + MEADOWVALE DR",,43.178802,-79.257152,,,,,,0
1041,317,"SCOTT ST + ELMA STREET",,43.179985,-79.254220,,,,,,0
1055,380,"NIAGARA ST + CHURCH ST",,43.164488,-79.238173,,,,,,0
1057,382,"NIAGARA ST + WELLAND AVE",,43.167150,-79.236275,,,,,,0
1058,383,"NIAGARA ST + DACOTAH ST",,43.168788,-79.235170,,,,,,0
1059,384,"NIAGARA ST + OTTAWA ST",,43.170020,-79.234352,,,,,,0
1060,386,"NIAGARA ST + MANNING ST",,43.171840,-79.233055,,,,,,0
1061,387,"NIAGARA ST + TRAPNELL ST ACCESS",,43.172530,-79.232293,,,,,,0
1062,388,"FACER ST + NIAGARA ST",,43.174525,-79.229177,,,,,,0
1064,390,"FACER ST + CONCORDE AVE",,43.175567,-79.226205,,,,,,0
1065,391,"FACER ST + SHERBOURNE ST",,43.176012,-79.224893,,,,,,0
1066,392,"AUGUSTA AV + GARNET ST",,43.178435,-79.224313,,,,,,0
1067,393,"OBLATE ST + CARLTON ST",,43.180995,-79.224035,,,,,,0
1069,396,"NIAGARA ST + LAURA SECORD",,43.183602,-79.225570,,,,,,0
1070,397,"NIAGARA ST + MEADOWBROOK CR",,43.186248,-79.225657,,,,,,0
1071,398,"NIAGARA ST + BUCHANAN RD",,43.187678,-79.225712,,,,,,0
1072,399,"NIAGARA ST + SCOTT ST",,43.189768,-79.225792,,,,,,0
1073,400,"NIAGARA ST + AGAR DR",,43.193193,-79.225975,,,,,,0
1074,401,"NIAGARA ST + MAPLEWOOD DR",,43.196730,-79.224950,,,,,,0
1075,402,"NIAGARA ST + LINWELL RD",,43.200648,-79.222430,,,,,,0
1076,433,"NIAGARA ST + LINWELL RD",,43.200473,-79.222708,,,,,,0
1077,434,"NIAGARA ST + MAPLEWOOD DR",,43.196643,-79.225148,,,,,,0
1078,435,"NIAGARA ST + AGAR DR",,43.193058,-79.226078,,,,,,0
1079,436,"NIAGARA ST + SCOTT ST",,43.189513,-79.225903,,,,,,0
1080,437,"NIAGARA ST + GRENADIER CT",,43.187965,-79.225840,,,,,,0
1081,438,"NIAGARA ST + MEADOWBROOK CR",,43.186017,-79.225728,,,,,,0
1082,439,"NIAGARA ST + LAURA SECORD SECONDARY SCHOOL",,43.183927,-79.225648,,,,,,0
1083,440,"NIAGARA ST + LESTER B PEARSON PARK",,43.181495,-79.226578,,,,,,0
1090,447,"FACER ST + CONCORD AV",,43.175503,-79.226325,,,,,,0
1092,449,"FACER ST + NIAGARA ST",,43.174447,-79.229423,,,,,,0
1093,450,"NIAGARA ST + DUNLOP DR",,43.172770,-79.232245,,,,,,0
1094,451,"NIAGARA ST + MANNING ST",,43.171283,-79.233580,,,,,,0
1095,452,"NIAGARA ST + RUSSELL AVE",,43.169923,-79.234487,,,,,,0
1096,453,"NIAGARA ST + DACOTAH ST",,43.168438,-79.235480,,,,,,0
1097,454,"NIAGARA ST + WELLAND AVE",,43.166762,-79.236585,,,,,,0
1099,456,"NIAGARA ST + CHURCH ST",,43.164147,-79.238483,,,,,,0
1263,1071,"TUPPER DR + SULLIVAN AVE",,43.122177,-79.221127,,,,,,0
1264,1072,"CONFEDERATION AV + KEEFER RD",,43.113785,-79.225260,,,,,,0
1265,1073,"CONFEDERATION AV + CONFEDERATION HEIGHTS PARK",,43.112227,-79.223073,,,,,,0
1266,1204,"CONFEDERATION AV + SUMMERS DR",,43.111138,-79.221357,,,,,,0
1306,643,"ROCKWOOD AVE + PARK AVE",,43.148237,-79.208857,,,,,,0
1319,1299,"RICHMOND ST + MANLEY CRES PATH",,43.110576,-79.231747,,,,,,0
1320,1300,"RICHMOND ST + CALCOTT CT",,43.112734,-79.230325,,,,,,0
1321,1301,"RICHMOND ST + CONFEDERATION AV",,43.114643,-79.226205,,,,,,0
1322,1302,"PINE ST S + LYNDEN ST W",,43.119026,-79.202903,,,,,,0
1323,1303,"PINE ST S + GARDEN ST",,43.120542,-79.203004,,,,,,0
1327,1241,"FIRST ST LOUTH + FOURTH AVE",,43.154553,-79.276210,,,,,,0
1328,1305,"2032 FIRST ST LOUTH",,43.151510,-79.276082,,,,,,0
1330,5,"FOURTH AVE + ONTARIO ST",,43.160022,-79.256692,,,,,,0
1337,1308,"GENEVA ST + FAIRVIEW MALL MAIN ENTRANCE",,43.177737,-79.240868,,,,,,0
1339,1310,"WELLAND AVE + YORK ST",,43.161413,-79.252607,,,,,,0
1343,729,"CUSHMAN RD",,43.182870,-79.200250,,,,,,0
1345,732,"WELLAND AVE + DORCHESTER BLVD S",,43.177923,-79.206453,,,,,,0
1346,734,"WELLAND AVE + BUNTING RD",,43.175805,-79.212488,,,,,,0
1347,1254,"WELLAND AVE + GRANTHAM AVE",,43.173198,-79.219761,,,,,,0
1349,1311,"428 CARLTON ST",,43.180462,-79.225300,,,,,,0
1351,1313,"FRONT ST + REGENT ST",,43.127852,-79.200837,,,,,,0
1353,152,"ONTARIO ST + 153 ONTARIO ST",,43.159482,-79.254243,,,,,,0
1354,1314,"MARTINDALE RD + FOURTH AV",,43.156152,-79.265592,,,,,,0
1364,743,"CARLTON ST + 479 CARLTON ST",,43.182028,-79.221715,,,,,,0
1389,1044,"ABBEY DRIVE + KEEFER RD",,43.107975,-79.225300,,,,,,0
1391,263,"CLARK ST + WELLAND AV",,43.162862,-79.246568,,,,,,0
1402,1208,"ONTARIO ST + TRAFALGAR ST",,43.155833,-79.247543,,,,,,0
1449,1338,"MCGUIRE ST + ST PAUL ST W",,43.153943,-79.245892,,,,,,0
1454,1002,"ABBEY DR + KEEFER RD",,43.108062,-79.225283,,,,,,0
1460,1342,"ST PAUL ST W + HAINER STREET",,43.149802,-79.248553,,,,,,0
1462,1340,"SIR ISAAC BROCK WAY + SCHMON PKWY",,43.118195,-79.239633,,,,,,0
1470,259,"GALE CR + RIORDON ST",,43.160412,-79.238237,,,,,,0
1471,1188,"RIORDON ST + DIVISION ST",,43.161452,-79.238643,,,,,,0
1472,607,"QUEENSTON ST + RIORDON ST",,43.162510,-79.238667,,,,,,0
1473,608,"QUEENSTON ST + CALVIN ST",,43.162978,-79.237395,,,,,,0
1474,1024,"SULLIVAN AVE + QUEEN ST",,43.122932,-79.204890,,,,,,0
1475,1023,"SULLIVAN AVE + PINE ST",,43.123012,-79.203325,,,,,,0
1486,1307,"ALBERT ST + PINE ST N",,43.124895,-79.202983,,,,,,0
1503,62,"MARTINDALE RD + DALEMERE BLVD",,43.188353,-79.286032,,,,,,0
1504,55,"BAYVIEW DR + GRAHAM AV",,43.197890,-79.278768,,,,,,0
1505,147,"ONTARIO ST + CARLTON STREET",,43.167382,-79.263565,,,,,,0
1506,148,"ONTARIO ST + PLEASANT AV",,43.165330,-79.261380,,,,,,0
1508,150,"ONTARIO ST + WOODRUFF AV",,43.162278,-79.257977,,,,,,0
1509,246,"OAKDALE AVE + ABBOT ST",,43.144652,-79.218505,,,,,,0
1510,1112,"LINWELL RD + GENEVA STREET",,43.193853,-79.242378,,,,,,0
1511,129,"LAKESHORE ROAD + LAKE ST",,43.200322,-79.252193,,,,,,0
1515,650,"HARTZEL RD + KESWICK ST",,43.155532,-79.214475,,,,,,0
1517,925,"QUEENSTON ST + BUNTING RD",,43.159083,-79.208722,,,,,,0
1519,446,"AUGUSTA AV + FACER ST",,43.176273,-79.224258,,,,,,0
1521,1348,"LAKESHORE ROAD + VINE ST",,43.209700,-79.232437,,,,,,0
1523,803,"RYKERT ST + EDITH STREET",,43.140965,-79.256882,,,,,,0
1524,805,"RYKERT ST + LOUTH STREET",,43.139970,-79.259473,,,,,,0
1525,1014,"RICHMOND ST + TUPPER DR",,43.117098,-79.218575,,,,,,0
1527,2221,"ALLANBURG RD + FIREHALL",,43.088750,-79.199312,,,,,,0
1528,2222,"BARKER PKWY + SUNSET WAY",,43.094783,-79.189473,,,,,,0
1535,683,"VINE ST + PRESTON DR",,43.203763,-79.231642,,,,,,0
1536,820,"VANSICKLE RD + MACTURNBULL DR",,43.132087,-79.269757,,,,,,0
1537,821,"VANSICKLE RD + MONTROSE ST",,43.134070,-79.269788,,,,,,0
1542,234,"ST DAVIDS RD + TUPPER DR",,43.124497,-79.222438,,,,,,0
1554,1309,"GLENDALE AVE + PEN CENTRE WEST ENTRANCE",,43.132397,-79.226762,,,,,,0
1555,791,"GLENDALE AVE + MARLENE DR",,43.132970,-79.230480,,,,,,0
1556,792,"GLENDALE AVE + WOODGALE PARK",,43.133995,-79.234550,,,,,,0
1557,787,"GLENDALE AVE + HAMPTON RD",,43.133478,-79.231752,,,,,,0
1558,789,"GLENDALE AVE + PENDALE PLAZA",,43.132342,-79.226397,,,,,,0
1561,1213,"CATHERINE ST + LOUISA ST",,43.164488,-79.245470,,,,,,0
1562,196,"ST PAUL ST + JAMES ST",,43.158345,-79.243418,,,,,,0
1563,257,"QUEENSTON ST + CHURCH ST",,43.163343,-79.235543,,,,,,0
1564,1312,"OBLATE ST + GARNET ST",,43.178764,-79.223980,,,,,,0
1567,1352,"FOURTH AVE + FIRST PLACE PLAZA",,43.155270,-79.273587,,,,,,0
1568,1351,"MERRITT ST + OAKDALE AV",,43.143610,-79.214007,,,,,,0
1569,1350,"DECEW RD + DECEW WOODS CT",,43.107237,-79.228741,,,,,,0
1570,1349,"RICHMOND ST + DECEW RD",,43.108038,-79.231705,,,,,,0
1630,860,"BUNTING RD + ONTARIO WORKS",,43.174272,-79.209993,,,,,,0
1631,858,"222 BUNTING RD",,43.172817,-79.209913,,,,,,0
1632,26,"MAIN ST + DALEMERE CR",,43.191302,-79.284443,,,,,,0
1633,658,"QUEENSTON ST + TASKER ST",,43.163516,-79.232438,,,,,,0
1635,598,"GLEN MORRIS DR + TOWERING HEIGHTS BLVD",,43.139780,-79.235782,,,,,,0
1638,1285,"GLENRIDGE AVE + EAST ACADEMIC CROSSWALK",,43.119059,-79.243455,,,,,,0
1641,1353,"3280 SCHMON PKWY",,43.111638,-79.241107,,,,,,0
1644,375,"LAKE ST + LOUISA STREET",,43.164600,-79.250715,,,,,,0
2607,710,"SCOTT ST + GRANTHAM PLAZA",,43.189436,-79.227671,,,,,,0
2612,BRU,"BROCK UNIVERSITY",,43.118878,-79.248973,,,,,,0
2620,CTO,"Thorold Towpath Terminal",,43.123822,-79.202080,,,,,,0
2622,DTT,"ST. CATHARINES BUS TERMINAL",,43.160076,-79.243553,,,,,,0
2623,FVM,"FAIRVIEW MALL",,43.178413,-79.245514,,,,,,0
2628,GDC,"NIAGARA COLLEGE - N.O.T.L. CAMPUS",,43.152309,-79.166473,,,,,,0
2660,PEN,"PEN CENTRE",,43.134869,-79.223701,,,,,,0
2670,10071,"SEAWAY MALL",,43.015388,-79.248792,,,,,,0
2681,OUT,"Outlet Collection at Niagara",,43.157880,-79.175200,,,,,,0
2689,WLC,"Niagara College - Welland Campus",,43.014897,-79.262253,,,,,,0
2692,WAL,"WEST ST CATHARINES SMART CENTRE",,43.152443,-79.266052,,,,,,0
2698,265,"CATHERINE ST + BEECH ST",,43.167179,-79.245575,,,,,,0
2700,407,"NIAGARA ST + BEAMER AV",,43.207798,-79.219162,,,,,,0
2702,430,"NIAGARA ST + OLD OXFORD RD",,43.205265,-79.220184,,,,,,0
2707,831,"GLENRIDGE AVE + GLENDALE AVE",,43.133892,-79.239143,,,,,,0
2714,9013,"Niagara St + 1019 Niagara St",,43.026325,-79.249772,,,,,,0
2715,9014,"Niagara St + Quaker Road",,43.023143,-79.249713,,,,,,0
2722,192,"ST PAUL ST W + FLUMMERFELT ST",,43.149033,-79.249931,,,,,,0
2725,1354,"MERRITT ST + TOWNLINE RD E",,43.133388,-79.199654,,,,,,0
2726,1355,"ST DAVIDS RD E + ORMOND ST N",,43.129812,-79.199434,,,,,,0
2727,151,"ONTARIO ST + WELLAND AVE",,43.161134,-79.256593,,,,,,0
2728,318,"SCOTT ST + LAKE ST",,43.180855,-79.252077,,,,,,0
2729,359,"LAKE ST + HEIDEHOF",,43.196716,-79.252243,,,,,,0
2730,415,"ARTHUR ST & WILDWOOD RD",,43.219318,-79.222389,,,,,,0
2731,504,"PARNELL RD + BUNTING RD",,43.213631,-79.213432,,,,,,0
2732,567,"GENEVA ST + LINWELL RD",,43.193447,-79.241745,,,,,,0
2733,591,"GLENRIDGE AV + BELTON BLVD",,43.140342,-79.239439,,,,,,0
2734,642,"WOODROW ST + ROCKWOOD AV",,43.149790,-79.202709,,,,,,0
2735,731,"WELLAND AV + CUSHMAN RD",,43.180048,-79.200857,,,,,,0
2736,733,"603 WELLAND AVE",,43.179342,-79.202710,,,,,,0
2740,1356,"QUEENSTON ST + IDA ST",,43.162305,-79.227494,,,,,,0
2741,1357,"SMART CENTRE + BENFIELD DR",,43.150738,-79.266697,,,,,,0
2742,421,"WILDWOOD RD + ARTHUR ST",,43.219481,-79.222350,,,,,,0
2750,1358,"FOURTH AVE + NORTH HOSPITAL ENTRANCE (N)",,43.155228,-79.279600,,,,,,0
2751,1359,"THIRD ST LOUTH + FOURTH AVE",,43.154584,-79.286779,,,,,,0
2752,1360,"PATHSTONE WAY + BRANSCOMBE MENTAL HEALTH CENTRE",,43.153536,-79.286002,,,,,,0
2754,1362,"FOURTH AVE + NORTH HOSPITAL ENTRANCE (S)",,43.155011,-79.279524,,,,,,0
2756,1364,"WELLAND AVE + GRANTHAM AV",,43.173112,-79.219397,,,,,,0
2757,1365,"WELLAND AVE + EXPORT AVE",,43.173926,-79.217230,,,,,,0
2758,1366,"WELLAND AVE + NEILSON AVE",,43.174966,-79.214344,,,,,,0
2759,1368,"WELLAND AVE + BUNTING RD",,43.176813,-79.209312,,,,,,0
2760,1369,"WELLAND AVE + DORCHESTER BLVD S",,43.178002,-79.205857,,,,,,0
2761,1370,"WELLAND AVE + CUSHMAN RD",,43.179825,-79.201180,,,,,,0
2762,1371,"SEAPARK DR + CUSHMAN RD (NNW)",,43.177110,-79.200557,,,,,,0
2763,1372,"SEAPARK DR + 27 SEAPARK DR",,43.175733,-79.203342,,,,,,0
2764,1373,"SEAPARK DR + 13 SEAPARK DR",,43.173484,-79.202269,,,,,,0
2765,1374,"SEAPARK DR + CUSHMAN RD (SSW)",,43.174231,-79.199941,,,,,,0
2766,1375,"CUSHMAN RD + EASTCHESTER AVE E",,43.170984,-79.199662,,,,,,0
2767,1376,"EASTCHESTER AVE E + WELLAND CANALS PKWY",,43.171680,-79.197108,,,,,,0
2768,1377,"WELLAND CANALS PKWY + 2 CUSHMAN RD BUSINESS PARK",,43.166191,-79.197108,,,,,,0
2769,1378,"WELLAND CANALS PKWY + HOWLAND DR (W)",,43.162505,-79.196797,,,,,,0
2770,1379,"WELLAND CANALS PKWY + WILFRED LAURIER CRES (W)",,43.158968,-79.195687,,,,,,0
2771,1380,"LOCK 3 MUSEUM",,43.154925,-79.194571,,,,,,0
2772,1381,"WELLAND CANALS PKWY + WILFRED LAURIER CRES (E)",,43.158623,-79.195515,,,,,,0
2773,1382,"WELLAND CANALS PKWY + HOWLAND DR (E)",,43.162356,-79.196534,,,,,,0
2774,1383,"WELLAND CANALS PKWY + QUEENSTON ST",,43.166124,-79.196995,,,,,,0
2775,1384,"EASTCHESTER AVE E + WELLAND CANALS PKWY",,43.171637,-79.197559,,,,,,0
2776,1385,"EASTCHESTER AVE E + CUSHMAN RD",,43.171054,-79.199329,,,,,,0
2777,1386,"SEAPARK DR + CUSHMAN RD (SNW)",,43.174286,-79.200284,,,,,,0
2778,1387,"SEAPARK DR + 12 SEAPARK DR",,43.173562,-79.202451,,,,,,0
2779,1388,"SEAPARK DR + 18 SEAPARK DR",,43.175248,-79.203197,,,,,,0
2780,1389,"SEAPARK DR + CUSHMAN RD (NSW)",,43.176989,-79.200075,,,,,,0
2782,1391,"FOURTH AVE + FIRST ST LOUTH",,43.155129,-79.276496,,,,,,0
2785,1392,"CARLTON ST + SUNNYLEA DR",,43.184440,-79.214810,,,,,,0
2786,1393,"CARLTON ST + PATRICIA DR",,43.183550,-79.217245,,,,,,0
2787,1394,"FOURTH AV + FIRST ST LOUTH",,43.155340,-79.276088,,,,,,0
2809,3002,"QUEEN VICT. PARK NORTH",,43.084348,-79.077016,,,,,,0
2810,3003,"HORNBLOWER NORTH",,43.088754,-79.074253,,,,,,0
2811,3005,"B&B SOUTH",,43.101500,-79.063100,,,,,,0
2813,30071,"AERO CAR NORTH",,43.117867,-79.068713,,,,,,0
2814,3009,"B&B NORTH",,43.101800,-79.062900,,,,,,0
2815,3013,"NIAGARA CITY CRUISES - ZIP LINE",,43.089434,-79.073130,,,,,,0
2816,3014,"QUEEN VICT. PARK SOUTH",,43.083606,-79.077502,,,,,,0
2817,3018,"FL. SHOWHOUSE N.",,43.072236,-79.074623,,,,,,0
2818,30211,"BUTFLY Turnaround",,43.135832,-79.054601,,,,,,0
2821,3022,"FLORAL CLOCK",,43.149159,-79.047993,,,,,,0
2823,3034,"FL. SHOWHOUSE S.",,43.072041,-79.074848,,,,,,0
2824,3036,"RAPIDSVIEW",,43.068026,-79.064555,,,,,,0
2854,3346,"Kalar Rd. & Westwood",,43.080240,-79.135882,,,,,,0
2879,3578,"Stanley Ave & Marineland Parkway",,43.068206,-79.081503,,,,,,0
2887,3634,"Morrison-Dorchester Hub",,43.103486,-79.115698,,,,,,0
2896,3871,"Table Rock",,43.078090,-79.079710,,,,,,0
2899,3873,"Fallsview Blvd & 6760",,43.077980,-79.082220,,,,,,0
2900,3888,"Fort Erie Municipal Center",,42.902190,-78.973490,,,,,,0
2916,6109,"Morrison St & Second Av",,43.104645,-79.076358,,,,,,0
2917,6110,"Fourth Av & Morrison St",,43.104287,-79.078657,,,,,,0
2919,6112,"Fourth Av & Valley Way",,43.102507,-79.078577,,,,,,0
2920,6113,"Fourth Av & Jepson St",,43.100407,-79.078498,,,,,,0
2921,6115,"McRae St & Detroit Av",,43.098590,-79.081167,,,,,,0
2922,6120,"Morrison St & 5645 Morrison St",,43.104444,-79.088339,,,,,,0
2924,6123,"Portage Rd & Scott St",,43.101263,-79.091699,,,,,,0
2925,6124,"Portage Rd & 5123 Portage Rd",,43.099638,-79.091157,,,,,,0
2926,6125,"Valley Way & Portage NW",,43.097963,-79.091380,,,,,,0
2927,6126,"Valley Way & Biamonte Pkwy",,43.097810,-79.094550,,,,,,0
2928,6127,"Valley Way & Drummond Rd",,43.097818,-79.097627,,,,,,0
2929,6128,"Portage Rd & Dennis Lane",,43.127732,-79.098580,,,,,,0
2930,6129,"Portage Rd & Stamford Green Dr",,43.126325,-79.098945,,,,,,0
2931,6135,"Stanley Av & Hamilton St",,43.110392,-79.086047,,,,,,0
2932,6136,"Bridge St & Homewood Av",,43.108483,-79.083552,,,,,,0
2933,6140,"Ailanthus Av & Dunn St",,43.078618,-79.089703,,,,,,0
2934,6141,"CB Wright Park",,43.075677,-79.089170,,,,,,0
2935,6142,"Stamford Kiwanis Manor",,43.074413,-79.088892,,,,,,0
2936,6152,"Stanley Av & Livingstone St",,43.076727,-79.083767,,,,,,0
2937,6153,"Stanley Av & Dunn St",,43.078515,-79.083908,,,,,,0
2939,6165,"Murray St & Stanley Av",,43.083513,-79.085252,,,,,,0
2940,6166,"Valley Way & Drummond Rd",,43.097757,-79.097182,,,,,,0
2941,6167,"Valley Way & Biamonte Pkwy",,43.097810,-79.094495,,,,,,0
2942,6168,"Valley Way & Portage Rd",,43.097923,-79.091085,,,,,,0
2943,6194,"Victoria Av & Morrison St",,43.104757,-79.073300,,,,,,0
2944,6195,"Victoria Av & Simcoe St",,43.101983,-79.073172,,,,,,0
2945,6197,"Victoria Av & McRae St",,43.099408,-79.073068,,,,,,0
2946,6198,"Victoria Av & Roberts St",,43.096920,-79.072950,,,,,,0
2947,6199,"Victoria Av & Bender St",,43.094521,-79.072855,,,,,,0
2948,6202,"Dorchester & Across Micmicking",,43.127820,-79.112620,,,,,,0
2949,6204,"Ferry St & Gladstone Av",,43.089554,-79.088883,,,,,,0
2950,6206,"Ferry St & Main St",,43.089557,-79.091829,,,,,,0
2955,6213,"Dunn St & Kiwanis Cres",,43.078553,-79.100685,,,,,,0
2956,6214,"Dunn St & Caledonia St",,43.078483,-79.102912,,,,,,0
2957,6215,"Dunn St & 6679 Dunn St",,43.078260,-79.105923,,,,,,0
2958,6216,"Dunn St & Hagar Av",,43.078005,-79.108792,,,,,,0
2960,6219,"Dorchester Rd & Winston St",,43.074342,-79.110048,,,,,,0
2962,6223,"MONTROSE ROAD & WAYNE ST",,43.090642,-79.123320,,,,,,0
2963,6224,"MONTROSE RD + GREENDALE ST",,43.093288,-79.123487,,,,,,0
2964,6225,"MONTROSE RD + WANLESS ST",,43.097262,-79.123725,,,,,,0
2965,6226,"Jubilee Dr & Red Haven Cr",,43.065758,-79.113893,,,,,,0
2966,6227,"Jubilee Dr & Ronnie Cr",,43.064377,-79.113608,,,,,,0
2968,6230,"MONTROSE RD + PREAKNESS ST",,43.100163,-79.123940,,,,,,0
2969,6232,"4726 MONTROSE RD",,43.104803,-79.124067,,,,,,0
2970,6233,"4400 MONTROSE RD",,43.109167,-79.124282,,,,,,0
2971,6238,"McLeod Rd & Merritt Av",,43.070638,-79.103705,,,,,,0
2972,6239,"McLeod Rd & Dell Av",,43.070695,-79.101712,,,,,,0
2973,6240,"McLeod Rd & Heximer Av",,43.070750,-79.099080,,,,,,0
2975,6243,"Drummond Rd & Churchill St",,43.074755,-79.097070,,,,,,0
2978,6247,"Dunn St & Locus Av",,43.078745,-79.094805,,,,,,0
2979,6248,"MONTROSE ROAD + CHOROZY ST",,43.112100,-79.124417,,,,,,0
2982,6252,"Portage Rd & St. Paul/O'Neil St",,43.123425,-79.099573,,,,,,0
2983,6257,"Drummond Rd & Taylor St",,43.085150,-79.097627,,,,,,0
2984,6258,"Drummond Rd & Murray St",,43.082870,-79.097538,,,,,,0
2985,6259,"Dixon St",,43.080580,-79.097395,,,,,,0
2986,6261,"Drummond Rd & Dixon St",,43.080350,-79.097268,,,,,,0
2987,6262,"Drummond Rd & Murray St",,43.082672,-79.097363,,,,,,0
2989,6264,"Drummond Rd & Culp St",,43.085842,-79.097515,,,,,,0
2991,6269,"Ferry St & Temperence Av",,43.089465,-79.089607,,,,,,0
2992,6270,"Ferry St & Allendale Av",,43.089490,-79.086000,,,,,,0
2993,6271,"Ferry St & Fallsview Blvd",,43.089522,-79.083012,,,,,,0
2994,6272,"Dorchester & Harriman",,43.124452,-79.112364,,,,,,0
2995,6275,"Victoria Av & Bender Hill",,43.094775,-79.072712,,,,,,0
2996,6276,"Victoria Av & 5306 Victoria Av",,43.097357,-79.072807,,,,,,0
2997,6277,"Victoria Av & Ryerson Cr",,43.098915,-79.072878,,,,,,0
2999,6279,"Victoria Av & Simcoe St",,43.102087,-79.073030,,,,,,0
3000,6280,"Victoria Av & Morrison St",,43.104280,-79.073117,,,,,,0
3001,6284,"Kalar Rd & Constabile Dr",,43.108412,-79.137203,,,,,,0
3002,6289,"Bridge St & Homewood Av",,43.108578,-79.083170,,,,,,0
3003,6301,"Kalar Rd & Catalina St",,43.087693,-79.136170,,,,,,0
3004,6302,"Kalar Rd & Forestview Blvd",,43.082193,-79.135908,,,,,,0
3005,6303,"Kalar Rd & Lundy's Lane SE",,43.088505,-79.135993,,,,,,0
3006,6309,"Kalar Rd & 6623 Kalar Rd",,43.079118,-79.135813,,,,,,0
3007,6310,"Kalar Rd & Coventry Rd",,43.074962,-79.135670,,,,,,0
3008,6311,"Kalar Rd & McGarry Dr",,43.072912,-79.135535,,,,,,0
3009,6312,"McLeod Rd & Kalar Rd",,43.069915,-79.134557,,,,,,0
3010,6313,"McLeod Rd & Pin Oak Dr",,43.070043,-79.129685,,,,,,0
3011,6315,"Canadian Drive HUB",,43.064281,-79.124815,,,,,,0
3014,6320,"Kalar Rd & McGarry Dr",,43.072728,-79.135400,,,,,,0
3015,6321,"Kalar Rd & Coventry Rd",,43.075160,-79.135487,,,,,,0
3016,6322,"Kalar Rd & 3730 Kalar Rd",,43.077085,-79.135687,,,,,,0
3017,6323,"Kalar Rd & 6600 Kalar Rd",,43.078903,-79.135662,,,,,,0
3019,6347,"Kalar Rd & 6066 Kalar Rd",,43.085793,-79.135860,,,,,,0
3020,6351,"Paddock Trail Dr & Post Rd",,43.100416,-79.135816,,,,,,0
3022,6353,"Paddock Trail Dr & Preakness St",,43.100973,-79.131855,,,,,,0
3024,6356,"Woodbine St & 8103 Woodbine St",,43.104303,-79.133675,,,,,,0
3025,6357,"Woodbine St & Kalar Rd",,43.104255,-79.136480,,,,,,0
3026,6359,"Kalar Rd & 4240 Kalar Rd",,43.110733,-79.137330,,,,,,0
3028,6362,"Thorold Stone Rd & Shiners Creek",,43.114468,-79.130233,,,,,,0
3029,6364,"Montrose Rd & Thorold Stone Rd",,43.113602,-79.124695,,,,,,0
3030,6365,"Montrose Rd & Chorozy St",,43.112402,-79.124615,,,,,,0
3031,6366,"Montrose Rd & Alpine Dr",,43.108627,-79.124385,,,,,,0
3032,6369,"Montrose Rd & Preakness St",,43.100457,-79.124138,,,,,,0
3033,6370,"Montrose Rd & Watson St",,43.096713,-79.123860,,,,,,0
3035,6372,"Montrose Rd & Rysdale St",,43.093718,-79.123638,,,,,,0
3036,6373,"Montrose Rd & Wayne St",,43.091078,-79.123487,,,,,,0
3037,6375,"St. Georges Church",,43.086112,-79.123263,,,,,,0
3038,6376,"MONTROSE RD + CHARNWOOD AV",,43.084245,-79.123217,,,,,,0
3039,6377,"6409 MONTROSE RD",,43.081972,-79.123137,,,,,,0
3040,6378,"MONTROSE RD + BADGER RD",,43.080510,-79.123065,,,,,,0
3041,6379,"Montrose Rd & Kinsmen Ct",,43.076440,-79.123432,,,,,,0
3042,6388,"Montrose + Marpin Crt",,43.078166,-79.122780,,,,,,0
3043,6389,"MONTROSE RD + BADGER RD",,43.080063,-79.122978,,,,,,0
3044,6390,"6490 MONTROSE RD",,43.081972,-79.123057,,,,,,0
3045,6391,"MONTROSE RD + DELTA DR",,43.083975,-79.123128,,,,,,0
3046,6392,"6110 MONTROSE RD",,43.085930,-79.123192,,,,,,0
3047,6398,"McLeod Rd & Sharon Av",,43.070535,-79.112773,,,,,,0
3048,6401,"McLeod Rd & Jubilee Dr",,43.070417,-79.113020,,,,,,0
3050,6404,"Dorchester Rd & Winston St",,43.074540,-79.109905,,,,,,0
3052,6412,"Portage Rd & 3500 O'Neil",,43.122257,-79.099588,,,,,,0
3053,6413,"St. Paul Av & Russell St",,43.124410,-79.099923,,,,,,0
3054,6414,"St. Paul Av & 3066 McMicking St",,43.128415,-79.099987,,,,,,0
3055,6415,"Ailanthus Av & Frontenac St",,43.072387,-79.088383,,,,,,0
3056,6416,"Ailanthus Av",,43.074643,-79.088908,,,,,,0
3057,6417,"Ailanthus before Sunnylea",,43.076466,-79.089318,,,,,,0
3058,6418,"Drummond Rd & Barker St",,43.087137,-79.097587,,,,,,0
3059,6429,"Bridge St & First Av",,43.108597,-79.074612,,,,,,0
3060,6431,"Bridge St & Third Av",,43.108643,-79.077273,,,,,,0
3061,6432,"Bridge St & Fourth Av",,43.108643,-79.078600,,,,,,0
3062,6434,"Bridge St & Sixth Av",,43.108618,-79.080882,,,,,,0
3063,6445,"Portage Rd & Colborne St",,43.119252,-79.099533,,,,,,0
3064,6446,"Portage Rd & St. John St",,43.117360,-79.099430,,,,,,0
3065,6447,"Thorold Stone Rd & Portage Rd",,43.115367,-79.100170,,,,,,0
3066,6448,"Thorold Stone Rd & St James Av",,43.115261,-79.102783,,,,,,0
3068,6449,"Thorold Stone Rd & 6557 Thorold",,43.115238,-79.105947,,,,,,0
3069,6450,"Thorold Stone Rd & 6767 Thorold",,43.115143,-79.109627,,,,,,0
3070,6452,"Thorold Stone Rd & Rolling Acres",,43.114953,-79.116787,,,,,,0
3071,6453,"Montrose Rd & Thorold Stone Rd",,43.116113,-79.124727,,,,,,0
3072,6454,"Montrose Rd & OPP Southwood",,43.118393,-79.124845,,,,,,0
3073,6456,"Monastary Dr & Trinity Cr",,43.120683,-79.122818,,,,,,0
3074,6457,"Cardinal Dr & Canterbury Cr",,43.121678,-79.123537,,,,,,0
3075,6458,"3568 Montrose Rd",,43.121057,-79.125020,,,,,,0
3076,6459,"Montrose Rd & Mount Carmel Blvd",,43.118863,-79.124988,,,,,,0
3077,6460,"Montrose Rd & Thorowest Plaza",,43.116018,-79.124838,,,,,,0
3079,6466,"Portage Rd & St. John St",,43.117067,-79.099295,,,,,,0
3080,6467,"Portage Rd & Colborne St",,43.118807,-79.099303,,,,,,0
3081,6468,"Keith St & Portage Rd",,43.120007,-79.098763,,,,,,0
3082,6469,"Keith St & Sinnicks Av",,43.120087,-79.094932,,,,,,0
3083,6470,"Ailanthus Av & Frontenac St",,43.072556,-79.088656,,,,,,0
3084,6471,"McLeod Rd & Ailanthus Av",,43.071258,-79.088335,,,,,,0
3085,6478,"Bridge St & Sixth Av",,43.108498,-79.081056,,,,,,0
3086,6480,"Bridge St & Fourth Av",,43.108499,-79.078824,,,,,,0
3087,6481,"Bridge St & Third Av",,43.108517,-79.077471,,,,,,0
3088,6483,"Bridge St & First Av",,43.108524,-79.074751,,,,,,0
3089,6484,"Sinnicks Av & Vine St",,43.121502,-79.094877,,,,,,0
3090,6485,"Sinnicks Av & Ker Park",,43.123425,-79.094972,,,,,,0
3091,6486,"Sinnicks Av & Carman St",,43.125062,-79.095075,,,,,,0
3092,6487,"Atlas St & Sinnicks Av",,43.126055,-79.094739,,,,,,0
3093,6488,"Atlas St & Judith Av",,43.126086,-79.092736,,,,,,0
3095,6490,"Heritage Dr & Empire Pl",,43.128401,-79.089948,,,,,,0
3097,6492,"Heritage Dr & Stanley Av",,43.129245,-79.087235,,,,,,0
3098,6493,"Church's Lane & Stanley Av",,43.130364,-79.087668,,,,,,0
3100,6499,"Church's Lane & St. Paul",,43.129940,-79.099740,,,,,,0
3101,6500,"Riall St & St. Patrick Av",,43.130140,-79.101568,,,,,,0
3102,6501,"Riall St & St. George Av",,43.130163,-79.103475,,,,,,0
3103,6502,"Riall St & St. Andrew Av",,43.130117,-79.105812,,,,,,0
3104,6503,"6675 RIALL ST.",,43.130085,-79.108300,,,,,,0
3105,6504,"Riall St & Piva Av",,43.130053,-79.111080,,,,,,0
3106,6505,"Riall St & Dorchester Rd",,43.130037,-79.112535,,,,,,0
3107,6513,"Casey St & Westfield Dr",,43.127057,-79.119115,,,,,,0
3108,6514,"Casey St & Mountjoy Crt",,43.125745,-79.119028,,,,,,0
3112,6522,"Paddock Trail Dr & Preakness 80",,43.101068,-79.131593,,,,,,0
3114,6524,"Paddock Trail Dr & Kalar Rd 8261",,43.100453,-79.136673,,,,,,0
3115,6531,"Morrison St & Lamarsh Dr",,43.104328,-79.102256,,,,,,0
3116,6533,"Drummond Rd & Scott St",,43.101013,-79.098460,,,,,,0
3118,6540,"Drummond Rd & Althea St",,43.105520,-79.098492,,,,,,0
3119,6541,"Cherrywood Rd",,43.107920,-79.098548,,,,,,0
3120,6542,"William St & Drummond Rd",,43.109772,-79.098262,,,,,,0
3121,6543,"William St & Portage Rd",,43.109803,-79.096792,,,,,,0
3122,6544,"Portage Rd & Stamford Medical",,43.111583,-79.097427,,,,,,0
3123,6545,"Portage Rd & Virginia St",,43.113188,-79.097937,,,,,,0
3124,6546,"Portage Rd & Thorold Stone Rd",,43.114730,-79.098548,,,,,,0
3126,6548,"Drummond Rd & Scott St",,43.100587,-79.098258,,,,,,0
3127,6549,"Kalar Rd & 4167 Kalar Rd",,43.111822,-79.137433,,,,,,0
3128,6550,"Morrison Clinc",,43.104455,-79.101893,,,,,,0
3129,6553,"Dorchester Rd & Dianne",,43.107720,-79.111352,,,,,,0
3130,6554,"Dorchester Rd & Freeman St",,43.110164,-79.111471,,,,,,0
3131,6558,"Stanley Av & George St",,43.113553,-79.086190,,,,,,0
3132,6559,"O'Neal St & Dorchester Rd",,43.122456,-79.111255,,,,,,0
3133,6560,"O'Neal St & Marion St",,43.122527,-79.108545,,,,,,0
3134,6561,"O'Neal St & Marlborough",,43.122598,-79.105860,,,,,,0
3135,6563,"Stanley Av & Alexander Cr",,43.102332,-79.085633,,,,,,0
3136,6566,"Stanley Av & Menzie St",,43.109278,-79.085920,,,,,,0
3137,6567,"Stanley Av & Fraser St",,43.112465,-79.085992,,,,,,0
3138,6569,"Thorold Stone Rd & Sinnicks Av",,43.115430,-79.094328,,,,,,0
3139,6570,"ThSt Rd& 6604 South",,43.115076,-79.106489,,,,,,0
3140,6571,"Thorold Stone Rd & Confederation",,43.115112,-79.107902,,,,,,0
3141,6572,"Thorold Stone Rd & St. James Av",,43.115215,-79.103062,,,,,,0
3142,6573,"Longhurst Ave",,43.115233,-79.101480,,,,,,0
3143,6574,"Thorold Stone Rd & Sinnicks Av",,43.115281,-79.094822,,,,,,0
3144,6576,"Stanley Av & Dunn St",,43.078372,-79.084083,,,,,,0
3145,6577,"Stanley Av & Livingstone St",,43.076273,-79.083908,,,,,,0
3146,6578,"Stanley Av & McLeod Rd",,43.071783,-79.083632,,,,,,0
3148,6580,"Portage Rd opp. Oak Hall",,43.068127,-79.075715,,,,,,0
3149,6583,"Portage Rd & Legion St",,43.060958,-79.055743,,,,,,0
3150,6584,"Portage Rd & Front St",,43.060180,-79.053145,,,,,,0
3151,6585,"Main St & Library",,43.058527,-79.051317,,,,,,0
3152,6586,"Main St & Dock",,43.057177,-79.053065,,,,,,0
3153,6589,"Oliver St & Gunning St",,43.053712,-79.052040,,,,,,0
3154,6590,"Gunning Dr & Mears Ct",,43.054800,-79.049490,,,,,,0
3155,6592,"Aberdeen St",,43.057529,-79.048771,,,,,,0
3157,6593,"Willoughby Dr & Main St",,43.058858,-79.050707,,,,,,0
3158,6594,"8076 Portage Rd",,43.060387,-79.053733,,,,,,0
3159,6595,"Portage Rd & Legion St",,43.061160,-79.056051,,,,,,0
3160,6597,"Oakes Hall",,43.068017,-79.075302,,,,,,0
3161,6598,"Marineland Pk & Stanley Av",,43.068388,-79.081260,,,,,,0
3162,6599,"3989 Main St",,43.055242,-79.055672,,,,,,0
3163,6600,"4109 Main St",,43.053488,-79.057833,,,,,,0
3164,6601,"Welland St & Drake St",,43.051582,-79.058453,,,,,,0
3165,6612,"Murray SW@Stanley",,43.083396,-79.084657,,,,,,0
3166,6613,"Drummond Rd & North St",,43.092892,-79.097777,,,,,,0
3167,6615,"Drummond Rd & Prospect St",,43.094370,-79.097857,,,,,,0
3168,6618,"Drummond Rd & Prospect St",,43.094647,-79.097992,,,,,,0
3169,6619,"Thorold Stone Rd & Montrose Rd",,43.114688,-79.125785,,,,,,0
3170,6620,"Thorold Stone Rd & Cardinal Dr",,43.114420,-79.131252,,,,,,0
3171,6621,"Drummond Rd & 5595 Drummond Rd",,43.092820,-79.097888,,,,,,0
3172,6622,"DoubleTree Hotel",,43.086980,-79.084650,,,,,,0
3173,6623,"Dunn St & Carlton Av",,43.078093,-79.106925,,,,,,0
3174,6624,"Dunn St & Caledonia St",,43.078372,-79.103300,,,,,,0
3175,6625,"Dunn St & Kiwanis Cr",,43.078435,-79.100867,,,,,,0
3176,6627,"Dunn St & Orchard Av",,43.078808,-79.092595,,,,,,0
3177,6629,"Dunn St & Aithanthus Av",,43.078952,-79.089893,,,,,,0
3178,6638,"McLeod Rd & Fern Av",,43.070575,-79.106518,,,,,,0
3179,6639,"McLeod Rd & Drummond Rd",,43.070791,-79.097063,,,,,,0
3180,6640,"6080 McLeod Rd",,43.070853,-79.094177,,,,,,0
3181,6643,"6105 McLeod Rd",,43.070948,-79.094717,,,,,,0
3182,6645,"Church's Lane & 5937 Church's",,43.130235,-79.095195,,,,,,0
3183,6646,"Church's Lane & Portage Rd",,43.129967,-79.097776,,,,,,0
3184,6647,"Thorold Stone Rd & Carroll Av",,43.115295,-79.096617,,,,,,0
3185,6650,"Drummond Rd & Gallinger St",,43.111457,-79.098850,,,,,,0
3186,6652,"Drummond Rd & Delta Bingo",,43.106037,-79.098620,,,,,,0
3187,6654,"Casey St & Dorchester Rd",,43.129377,-79.115023,,,,,,0
3188,6655,"Casey St & Appleford Av",,43.128343,-79.117582,,,,,,0
3189,6656,"Harriman St & Fairway Rd",,43.124267,-79.114992,,,,,,0
3190,6657,"Harriman St & Dorchester Rd",,43.124378,-79.112417,,,,,,0
3191,6659,"Kalar Rd & McLeod Rd 7059",,43.070877,-79.135495,,,,,,0
3192,6669,"Dunn St & Orchard Av",,43.078872,-79.092643,,,,,,0
3193,6674,"Kalar Rd & Beaverdams Rd",,43.095673,-79.136528,,,,,,0
3194,6675,"Kalar Rd & Racey Av",,43.092653,-79.136362,,,,,,0
3196,6678,"Kalar Rd & Marcon St",,43.106855,-79.137053,,,,,,0
3197,6679,"Kalar Rd & Constabile Dr",,43.108643,-79.137172,,,,,,0
3198,6680,"7021 Stanley Av",,43.074263,-79.083528,,,,,,0
3199,6681,"Stanley Ave opp. Mt. Carmel",,43.074103,-79.083678,,,,,,0
3200,6685,"Church's Lane & St. Anthoney Crescent",,43.130354,-79.092948,,,,,,0
3202,6688,"Willoughby Dr & Caronpost Rd",,43.052332,-79.046385,,,,,,0
3203,6689,"8729 WILLOUGHBY DR",,43.050756,-79.046281,,,,,,0
3204,6690,"McLeod Rd & Alex Av",,43.071083,-79.091197,,,,,,0
3205,6692,"Jubilee Dr & 7748 Jubilee",,43.064417,-79.111797,,,,,,0
3206,6695,"Ailanthus Av & Dunn St",,43.078872,-79.089600,,,,,,0
3207,6698,"Weinbrenner Rd & Campbell Av",,43.049006,-79.055071,,,,,,0
3208,6699,"Weinbrenner Rd & Montcalm Cr",,43.048992,-79.056880,,,,,,0
3209,6700,"Woodbine St & Kalar Rd",,43.104097,-79.135208,,,,,,0
3210,6701,"Willoughby Dr & Welland St",,43.058305,-79.049935,,,,,,0
3211,6703,"McLeod Rd & Adams Av",,43.070702,-79.106487,,,,,,0
3212,6704,"McLeod Rd & Bruce Av",,43.070647,-79.108355,,,,,,0
3213,6706,"McLeod Rd & Drummond Rd",,43.070917,-79.096807,,,,,,0
3214,6707,"McLeod Rd & Merritt Av",,43.070765,-79.103770,,,,,,0
3215,6708,"McLeod Rd & Dorchester Rd",,43.070615,-79.109658,,,,,,0
3216,6709,"ThldStone Rd@Dorch NW Cor",,43.115099,-79.112735,,,,,,0
3217,6710,"McLeod Rd & St. Michael's Av",,43.069693,-79.145867,,,,,,0
3218,6714,"Portage Rd & Valley Way",,43.098168,-79.090878,,,,,,0
3219,6715,"McLeod Rd & Heximer Av",,43.070853,-79.099478,,,,,,0
3220,6716,"McLeod Rd & Dell Ave",,43.070830,-79.101170,,,,,,0
3221,6717,"McLeod Rd & St. Michael's Schoo",,43.069733,-79.143585,,,,,,0
3222,6718,"Willoughby Dr & Gunning Dr",,43.055160,-79.046435,,,,,,0
3223,6800,"6733 Kalar Rd",,43.076988,-79.135782,,,,,,0
3224,6802,"Thorold Stone Rd & Burbank Cr",,43.114873,-79.115547,,,,,,0
3225,6803,"ThldStone@Dorch SW Cor",,43.114991,-79.112491,,,,,,0
3226,6804,"Dunn St & Level Avenue",,43.079038,-79.088702,,,,,,0
3227,6806,"Thorold Stone Rd & Collard Av",,43.114468,-79.128135,,,,,,0
3229,6808,"Montrose Rd & Mulhern St",,43.105607,-79.124250,,,,,,0
3230,6810,"Stanley Av & Dixon St",,43.081383,-79.084283,,,,,,0
3231,6811,"Stanley Av & Dixon St",,43.081105,-79.084092,,,,,,0
3232,6812,"Jill Dr & Valliant St",,43.067285,-79.110612,,,,,,0
3233,6815,"Welland St & Banting St",,43.052948,-79.056332,,,,,,0
3234,6816,"Welland St & Oliver St",,43.054847,-79.053877,,,,,,0
3236,6819,"Montrose Rd & Charnwood Av",,43.077982,-79.122970,,,,,,0
3237,6820,"Kalar Rd & North of Rideau St",,43.083513,-79.135773,,,,,,0
3238,6824,"Drummond Rd & Thorold Stone Rd",,43.114738,-79.099002,,,,,,0
3239,6825,"Drummond Rd & Cherrywood Rd",,43.108707,-79.098715,,,,,,0
3240,6835,"Dorchester Rd & Jill Dr",,43.067095,-79.109673,,,,,,0
3242,6838,"3741 Weinbrenner Rd",,43.049079,-79.051224,,,,,,0
3243,6848,"Boys & Girls Club",,43.069597,-79.145493,,,,,,0
3244,6849,"Drummond Rd & Glengate St",,43.110137,-79.098770,,,,,,0
3245,6851,"McLeod Rd & Parkside Rd",,43.069837,-79.139428,,,,,,0
3246,6852,"Weinbrenner Rd & Sodom Rd",,43.048952,-79.058964,,,,,,0
3248,6862,"Kalar Rd & McLeod Rd",,43.070718,-79.135303,,,,,,0
3249,6889,"McLeod Rd (S) & Parkside Rd",,43.069812,-79.139103,,,,,,0
3250,6890,"Kalar Rd & Rideau St",,43.084348,-79.135988,,,,,,0
3253,6895,"Ferry St & Allendale Av (N)",,43.089640,-79.086445,,,,,,0
3254,6896,"Oakwood Dr SW",,43.069025,-79.117542,,,,,,0
3256,6906,"Kalar Rd & Lundy's Lane N/E",,43.089283,-79.136043,,,,,,0
3258,6908,"Kalar Rd & Racey Av",,43.093067,-79.136298,,,,,,0
3259,6914,"McRae St & Stanley Av",,43.098513,-79.085066,,,,,,0
3260,6915,"Kalar Rd & Beaverdams Rd",,43.095172,-79.136448,,,,,,0
3263,8285,"Lundy's Lane & Drummond Rd",,43.089529,-79.098267,,,,,,0
3264,8286,"Lundy's Lane & Leonard",,43.089450,-79.100100,,,,,,0
3265,8287,"Lundy's Lane & Best Western",,43.089430,-79.102100,,,,,,0
3266,8288,"Lundy's Lane & Byng",,43.089390,-79.104800,,,,,,0
3267,8291,"Lundy's Lane & Dorchester Rd",,43.089320,-79.110300,,,,,,0
3268,8293,"Lundy's Lane & Royal Manor",,43.089240,-79.117100,,,,,,0
3269,8294,"Lundy's Lane & Canada One Facto",,43.089150,-79.119700,,,,,,0
3270,8295,"Lundy's Lane & Montrose Rd",,43.089090,-79.122300,,,,,,0
3271,8296,"Lundy's Lane & Beaverdams Rd",,43.089050,-79.125200,,,,,,0
3272,8297,"Lundy's Manor",,43.089010,-79.129000,,,,,,0
3274,8331,"Lundy's Lane & Greycliff Manor",,43.088860,-79.134396,,,,,,0
3275,8332,"Lundy's Lane & Westlane Secondary School",,43.088910,-79.130100,,,,,,0
3276,8333,"Lundy's Lane & Lundy's Manor",,43.088929,-79.128213,,,,,,0
3277,8334,"Niagara Lodge & Suites",,43.088970,-79.125400,,,,,,0
3278,8335,"Lundy's Lane & Montrose Rd",,43.088988,-79.122599,,,,,,0
3279,8336,"Lundy's Lane & Factory Outlets",,43.089020,-79.119600,,,,,,0
3280,8337,"Lundy's Lane & Royal Manor",,43.089076,-79.117253,,,,,,0
3281,8338,"Lundy's Lane & Brookfield",,43.089210,-79.113500,,,,,,0
3282,8339,"Lundy's Lane & Dorchester Rd",,43.089237,-79.110703,,,,,,0
3283,8340,"Lundy's Lane & Corwin",,43.089280,-79.108800,,,,,,0
3284,8341,"Lundy's Lane & Carlton Av",,43.089320,-79.106200,,,,,,0
3285,8342,"Lundy's Lane & Glenholme",,43.089360,-79.103400,,,,,,0
3286,8343,"Lundy's Lane & Best West Cairn",,43.089394,-79.101002,,,,,,0
3287,8344,"Lundy's Lane & Drummond Rd",,43.089390,-79.098000,,,,,,0
3288,8577,"Stanley Av & Convention Centre",,43.076308,-79.083873,,,,,,0
3290,8684,"Lundy's Lane & KOA Kampground",,43.088560,-79.142320,,,,,,0
3291,8685,"Lundy's Lane & Americana Hotel",,43.088740,-79.139600,,,,,,0
3293,8873,"Fallsview Blvd & Marriott Hotel",,43.077600,-79.082100,,,,,,0
3294,8874,"Fallsview Blvd & Oakes Hotel",,43.080610,-79.082600,,,,,,0
3295,8875,"Fallsview Blvd & Fallsview Casin",,43.082996,-79.082755,,,,,,0
3296,8877,"Robinson & Clark",,43.086454,-79.081617,,,,,,0
3297,8880,"Lundy's Lane & KOA Kampground",,43.088790,-79.142500,,,,,,0
3298,8881,"Scott's Tent & Trailer Park",,43.088280,-79.146600,,,,,,0
3299,8882,"Lundy's Lane & Campark Turnarou",,43.086200,-79.156300,,,,,,0
3300,8917,"Victoria Av",,43.093227,-79.074280,,,,,,0
3301,8922,"Falls Av & Sheraton on the Falls",,43.091200,-79.072000,,,,,,0
3302,8923,"Victoria Av & Clifton Hill",,43.091620,-79.077000,,,,,,0
3303,8924,"Howard Johnson/Frewin Theatre",,43.089970,-79.079700,,,,,,0
3304,8925,"Ferry St & Fallsview Blvd",,43.089620,-79.083500,,,,,,0
3305,8926,"Stanley Av & Ramada Hotel",,43.087200,-79.084800,,,,,,0
3306,8928,"Skylon Tower",,43.086170,-79.080130,,,,,,0
3307,8929,"Robinson St & Wyndham Garden Hot",,43.086317,-79.084138,,,,,,0
3308,8930,"Hilton Hotel/Fallsview Casino",,43.082540,-79.082800,,,,,,0
3309,8932,"Embassy Suites Hotel/Tower Hotel",,43.079169,-79.082518,,,,,,0
3310,8933,"Niagara Falls Museum",,43.089522,-79.091044,,,,,,0
3311,8935,"Murray St & Fallsview Casino",,43.083490,-79.082200,,,,,,0
3312,8936,"Lundy's Lane & Kalar Rd",,43.088818,-79.136377,,,,,,0
3313,8938,"Lundy's Lane & Kalar Rd",,43.088859,-79.136037,,,,,,0
3314,8939,"Lundy's Lane & Americana Resort",,43.088850,-79.139800,,,,,,0
3315,8940,"CLIFTON HILL/NIAGARA CITY CRUISES",,43.090020,-79.072600,,,,,,0
3316,8950,"Convention Centre",,43.076840,-79.084700,,,,,,0
3317,8951,"Casino Niagara",,43.093130,-79.073100,,,,,,0
3318,8960,"Clift. Hill/Oneida Ln",,43.091600,-79.075300,,,,,,0
3319,8961,"Murray@Fallsview N/W",,43.083672,-79.081886,,,,,,0
3322,8965,"Wyndham Fallsview Hotel",,43.081760,-79.082800,,,,,,0
3323,8967,"Copacabana",,43.079640,-79.082600,,,,,,0
3324,8980,"Starbucks",,43.082202,-79.082677,,,,,,0
3325,99993,"CLIFTON GATE",,43.090486,-79.070817,,,,,,0
3326,99996,"Ferry & Stanley",,43.089641,-79.084035,,,,,,0
3358,6130,"Portage Rd. Opp. Hospital",,43.093900,-79.091713,,,,,,0
3359,6131,"Main St & Summer St",,43.091620,-79.092882,,,,,,0
3361,6134,"Main St & Culp St",,43.086109,-79.091259,,,,,,0
3362,6144,"Ferguson St & 4668",,43.113393,-79.070688,,,,,,0
3363,6145,"Ferguson St & 4514",,43.113445,-79.068280,,,,,,0
3364,6146,"Ferguson St & Stanton Av",,43.113495,-79.065658,,,,,,0
3365,6147,"Ferguson St & Elgin St",,43.113086,-79.064343,,,,,,0
3366,6148,"Buttery St & River Rd",,43.111704,-79.061447,,,,,,0
3367,6150,"5657 McLeod Rd",,43.071172,-79.086173,,,,,,0
3369,6161,"Main St & Summer St",,43.091350,-79.092897,,,,,,0
3370,6162,"Portage Rd & Hospital",,43.094035,-79.091530,,,,,,0
3371,6169,"Portage Rd & 5130 Portage Rd",,43.099773,-79.091142,,,,,,0
3372,6170,"Portage Rd & Arthur St",,43.101467,-79.091658,,,,,,0
3373,6172,"Morrison St & Law Av",,43.104383,-79.089290,,,,,,0
3375,6178,"McRae St & Detroit Av",,43.098518,-79.081263,,,,,,0
3376,6180,"Fourth Av & Jepson St",,43.100258,-79.078393,,,,,,0
3377,6181,"Fourth Av & Valley Way",,43.102078,-79.078465,,,,,,0
3379,6183,"Fourth Av & Morrison St",,43.104327,-79.078560,,,,,,0
3380,6184,"Morrison St & Second Av",,43.104573,-79.075462,,,,,,0
3382,6186,"Huron St & St. Lawrence Av",,43.105623,-79.070538,,,,,,0
3384,6188,"4520 HURON ST",,43.105655,-79.067697,,,,,,0
3385,6189,"Queen St & Erie Av",,43.106655,-79.064303,,,,,,0
3386,6193,"Bridge St & River Rd",,43.108865,-79.060488,,,,,,0
3387,6201,"Drummond Rd & LL SE",,43.088878,-79.097713,,,,,,0
3388,6217,"Dorchester Rd & Dunn St",,43.077482,-79.110127,,,,,,0
3389,6222,"Dorchester Rd & McLeod Rd",,43.070678,-79.109923,,,,,,0
3390,6246,"Drummond Rd & Dunn St",,43.078475,-79.097182,,,,,,0
3391,6253,"Culp St & Main St",,43.086295,-79.092095,,,,,,0
3393,6255,"Culp St & 6155 Culp St",,43.086072,-79.096220,,,,,,0
3395,6260,"Drummond Rd & Dunn St SE",,43.078801,-79.097340,,,,,,0
3397,6266,"Dorchester + McLeod Rd",,43.070090,-79.109904,,,,,,0
3398,6267,"Jill Dr & Jubilee Dr",,43.067412,-79.113473,,,,,,1
3399,6268,"Ferry St & Main St",,43.089465,-79.091952,,,,,,0
3401,6317,"Pin Oak Dr & Cineplex",,43.068588,-79.128597,,,,,,0
3402,6380,"O'Neil St & St. Patricks Av",,43.122852,-79.101250,,,,,,0
3403,6381,"O'Neal St & Marlborough St",,43.122733,-79.105677,,,,,,0
3404,6382,"O'Neal St & Marion St",,43.122645,-79.108570,,,,,,0
3405,6383,"O'Neil St & Dorchester Rd",,43.122575,-79.111208,,,,,,0
3406,6384,"Dorchester Rd & Oxford St",,43.119872,-79.112242,,,,,,0
3407,6385,"Dorchester Rd & Waterloo Dr",,43.118425,-79.112162,,,,,,0
3408,6386,"Dorchester Rd & Thorold Stone Rd",,43.116415,-79.112018,,,,,,0
3409,6387,"Dorchester Rd & Isaac St",,43.116582,-79.111892,,,,,,0
3410,6395,"Dorchester Rd & Barker St",,43.087082,-79.110462,,,,,,0
3411,6396,"Dorchester Rd & Stokes St",,43.084022,-79.110318,,,,,,0
3412,6397,"Dorchester Rd & Coach Dr",,43.082337,-79.110270,,,,,,0
3413,6399,"McLeod Rd @ Oakwood Dr",,43.070430,-79.117297,,,,,,0
3414,6402,"Dorchester Rd & McLeod NE",,43.071617,-79.109762,,,,,,0
3415,6406,"Dorchester Rd & Dunn St",,43.077681,-79.110032,,,,,,0
3416,6407,"Dorchester Rd & McMillan",,43.080453,-79.110127,,,,,,0
3417,6408,"Dorchester Rd & Coach Dr",,43.082233,-79.110190,,,,,,0
3418,6421,"Buttery St & May Av",,43.111798,-79.061180,,,,,,0
3419,6422,"Buttery St & Terrace Av",,43.111805,-79.062475,,,,,,0
3420,6423,"Terrace Av & Elgin St",,43.112878,-79.063882,,,,,,0
3421,6424,"Terrace Av & Ferguson St",,43.113475,-79.064613,,,,,,0
3422,6425,"Ferguson St & Stanton Av",,43.113602,-79.065575,,,,,,0
3423,6426,"Ferguson St & Broughton Av",,43.113562,-79.067792,,,,,,0
3424,6427,"Ferguson St & Muir Av",,43.113498,-79.070693,,,,,,0
3425,6440,"Dorchester Rd & Stokes St",,43.083712,-79.110222,,,,,,0
3426,6441,"Dorchester Rd & Barker St",,43.086867,-79.110350,,,,,,0
3427,6455,"Monastery Dr & Montrose Rd",,43.119898,-79.124798,,,,,,0
3428,6498,"Stanley Av & Arthur St",,43.101473,-79.085633,,,,,,0
3429,6526,"Dorchester & Thorold Stone SW",,43.113903,-79.111803,,,,,,0
3430,6527,"Dorchester Rd & Dolphin St",,43.111385,-79.111637,,,,,,0
3431,6528,"Dorchester Rd & Freeman St",,43.109723,-79.111527,,,,,,0
3432,6529,"Dorchester Rd & Dianne St",,43.107596,-79.111459,,,,,,0
3433,6530,"Morrison St & 6700 Morrison St",,43.104200,-79.109158,,,,,,0
3434,6551,"Morrison St & 6777 Morrison St",,43.104343,-79.109332,,,,,,0
3435,6552,"Dorchester Rd & Morrison Rd",,43.105366,-79.111435,,,,,,0
3436,6555,"Dorchester Rd & Pettit Av",,43.112866,-79.111625,,,,,,0
3437,6556,"Dorchester Rd & Thorold Stone Rd",,43.114508,-79.111700,,,,,,0
3440,6644,"Dorchester&Morrison NE",,43.105185,-79.111147,,,,,,0
3441,6658,"McRae St & Buchanan Av",,43.098453,-79.084490,,,,,,0
3442,6665,"Dorchester Rd & High St",,43.090825,-79.110572,,,,,,0
3443,6666,"Dorchester Rd & Frederica St",,43.093980,-79.110628,,,,,,0
3444,6667,"Dorchester Rd & Dawson St",,43.098955,-79.110953,,,,,,0
3445,6668,"Dorchester Rd & Keiffer St",,43.100950,-79.111065,,,,,,0
3446,6682,"Drummond Rd & Margaret St",,43.076790,-79.097237,,,,,,0
3447,6683,"Drummond Rd & Skinner St",,43.074295,-79.097157,,,,,,0
3448,6711,"Portage Rd & Valley Way SE",,43.097867,-79.090752,,,,,,0
3452,6725,"Queen St & Zimmerman Av",,43.106615,-79.061332,,,,,,0
3453,6801,"Morrison & Drummond NW",,43.104243,-79.099009,,,,,,0
3456,6847,"Dorchester Rd & McMillan Dr",,43.080485,-79.110222,,,,,,0
3460,6911,"Main St & Robinson St",,43.085850,-79.091007,,,,,,0
3461,6912,"Main St & Symmes St",,43.084897,-79.089592,,,,,,0
3464,32003,"QUEEN ST - DOWNTOWN",,43.106688,-79.063043,,,,,,0
3465,32004,"BUS & TRAIN STATION",,43.108503,-79.063423,,,,,,0
3467,3500,"WILDPLAY ADVENTURE CENTER",,43.123536,-79.068385,,,,,,0
3469,6154,"McL@Stanley Ave SW Corner",,43.071180,-79.084110,,,,,,1
3471,6191,"HURON ST + ONTARIO AV",,43.105627,-79.065613,,,,,,0
3473,6234,"Culp SW@Dawlish",,43.085961,-79.096533,,,,,,0
3476,6283,"Kalar@Across From Marcon",,43.106574,-79.137084,,,,,,0
3478,6400,"Dor Rd@Across Orchard Park",,43.119780,-79.112080,,,,,,0
3479,6472,"Sylvia Place@Ferry St S/E",,43.089469,-79.090924,,,,,,0
3480,6628,"Thld Stone @Glenoaks",,43.114373,-79.135141,,,,,,0
3481,6663,"Dorchester Rd & Garden St",,43.093607,-79.110795,,,,,,0
3482,6664,"Dorchester Rd & High St",,43.090983,-79.110660,,,,,,0
3483,6726,"Montrose & S of Mcleod",,43.069617,-79.126240,,,,,,0
3484,6829,"Dorchester Rd & Dawson St",,43.100362,-79.111287,,,,,,0
3485,8006,"White Water Walk N",,43.110750,-79.060389,,,,,,0
3486,8290,"Lundy's Lane & Corwin (North Si",,43.089370,-79.108430,,,,,,0
3487,8576,"Stanley @ 6683",,43.078300,-79.084090,,,,,,0
3488,8581,"Portage Rd & Marineland",,43.066144,-79.072503,,,,,,0
3489,8596,"Portage Rd & Across Marineland",,43.066100,-79.071900,,,,,,0
3490,8958,"LL@Across Scott",,43.088231,-79.146200,,,,,,0
3497,6231,"4850 MONTROSE RD",,43.102508,-79.123956,,,,,,0
3498,6367,"MONTROSE RD + WOODBINE ST",,43.104096,-79.124240,,,,,,0
3500,6394,"Dorchester + Lundy's Lane SW",,43.088590,-79.110600,,,,,,0
3501,8010,"Bird Kingdom",,43.092292,-79.068693,,,,,,0
3502,8011,"Clifton Hill S",,43.091266,-79.070069,,,,,,0
3503,8035,"MAPLE LEAF PLACE",,43.113010,-79.061900,,,,,,0
3504,8102,"BUS & TRAIN STATION",,43.108058,-79.063534,,,,,,0
3505,8299,"Lundy's Lane + Orchard Grove",,43.088960,-79.133169,,,,,,0
3506,32005,"QUEEN ST - DOWNTOWN",,43.106568,-79.062770,,,,,,0
3508,6116,"Morrison & Portage NW",,43.104396,-79.093789,,,,,,0
3510,6138,"Dunn&Stanley NW",,43.079295,-79.084715,,,,,,0
3511,6149,"McLeod Rd & Alex Av S/W",,43.070961,-79.091276,,,,,,0
3514,6236,"Culp St & Orchard Ave",,43.086121,-79.093623,,,,,,0
3515,6361,"Kalar&ThoSto SE",,43.114090,-79.137340,,,,,,0
3516,6495,"Victoria&Queen NE",,43.106963,-79.073195,,,,,,0
3517,6497,"Bridge St & Crysler Av SW",,43.108595,-79.068848,,,,,,0
3518,6532,"Kalar&Thorold Stone SW",,43.113852,-79.137550,,,,,,0
3519,6535,"Morrison & Drummond SW",,43.104140,-79.098955,,,,,,0
3520,6630,"Dunn& Stanley SW",,43.079093,-79.084980,,,,,,0
3521,8270,"Ferry St & Allendale (S/E)",,43.089510,-79.085900,,,,,,0
3522,1396,"RICHMOND ST + WINTERBERRY BL",,43.114458,-79.226901,,,,,,0
3523,1397,"RICHMOND ST + RASPBERRY BL",,43.112814,-79.230420,,,,,,0
3524,1398,"RICHMOND ST + MANLEY CR PATH",,43.110683,-79.231901,,,,,,0
3525,6363,"Thorold Stone Rd + Montrose Rd",,43.114541,-79.125203,,,,,,0
3526,6374,"Montrose Rd & Lundy's Ln",,43.087912,-79.123348,,,,,,0
3527,6845,"Thorold Stone Rd + Kalar Rd",,43.114366,-79.137132,,,,,,0
3528,6846,"Thorold Stone Rd + Kalar Rd",,43.114223,-79.137608,,,,,,0
3529,6918,"Montrose Rd & Lundy's Ln",,43.088031,-79.123137,,,,,,0
3530,6946,"East Main St + Wellington St",,42.993599,-79.227015,,,,,,0
3531,6948,"East Main St + Wellington St",,42.993472,-79.227167,,,,,,0
3532,6950,"Concentrix",,43.039340,-79.124025,,,,,,0
3533,6953,"Schisler Rd + Montrose Rd",,43.006608,-79.123645,,,,,,0
3534,6954,"Montrose Rd + Schisler Rd",,43.008063,-79.122215,,,,,,0
3543,6114,"Fourth Ave & McRae NW",,43.098730,-79.078479,,,,,,0
3544,6133,"Main & Ferry Hub",,43.088659,-79.092531,,,,,,0
3545,6143,"Ferguson&Victoria SE",,43.113341,-79.072758,,,,,,0
3547,6173,"Morrison St & Stanley Av",,43.104415,-79.086070,,,,,,0
3549,6200,"Drummond & Lundy's Lane SW",,43.088520,-79.097863,,,,,,0
3550,6212,"Dunn & Drummond NE",,43.078776,-79.096992,,,,,,0
3552,6237,"Culp St & Main St",,43.086279,-79.091610,,,,,,0
3554,6273,"Woodbine & Paddock SW",,43.104223,-79.131442,,,,,,0
3555,6330,"Kalar Rd & Lundy's Lane NW",,43.089147,-79.136179,,,,,,0
3557,6355,"Paddock Trail & Woodbine SE",,43.104129,-79.131355,,,,,,0
3558,6516,"Harriman St & Wiltshire Blvd",,43.124256,-79.117572,,,,,,0
3560,6557,"Thorold Stone Rd. & Stanley S",,43.115422,-79.089010,,,,,,1
3562,6631,"Drummond&Morrison NE",,43.104474,-79.098472,,,,,,0
3563,6648,"Thorold Stone Rd & Carrol Av",,43.115432,-79.096481,,,,,,0
3564,6684,"Drummond&McL NW",,43.071211,-79.097130,,,,,,0
3565,6817,"McBain Centre",,43.071752,-79.124670,,,,,,0
3566,8008,"White Water Walk S",,43.110989,-79.060745,,,,,,0
3567,8020,"GLEN NATURE CENTER",,43.129396,-79.060495,,,,,,1
3568,8033,"Whirlpool Golf S",,43.124908,-79.071103,,,,,,0
3569,8500,"WILDPLAY ADVENTURE CENTER",,43.123557,-79.068029,,,,,,1
3592,6626,"Dunn & Drummond SW",,43.078580,-79.097470,,,,,,0
3599,80,"FOURTH AV + RIDLEY SQUARE PLAZA",,43.155586,-79.263756,,,,,,0
3602,724,"DUNKELD AV + CARLTON ST",,43.188005,-79.204890,,,,,,0
3606,1399,"St. Catharines GO Train Station",,43.147719,-79.255085,,,,,,0
3627,6733 ,"Brown Rd. @ Shadbush",,43.059178,-79.129558,,,,,,1
3628,6734,"Kalar Rd North of Buckeye Cres",,43.061157,-79.135126,,,,,,1
3629,6735,"Kalar Rd SE Opp. Elderberry",,43.065031,-79.135160,,,,,,1
3631,6179,"Fourth&McRae NE",,43.098884,-79.078314,,,,,,0
3632,6740,"WALNUT ST + VICTORIA AV",,43.093812,-79.074188,,,,,,1
3633,6741,"ELLEN AV + CENTRE ST",,43.092867,-79.076745,,,,,,1
3634,6742,"ELLEN AV + MAGDALEN ST",,43.090918,-79.079770,,,,,,1
3635,6743,"ELLEN AV + FERRY ST",,43.089786,-79.081520,,,,,,1
3636,6744,"WALNUT ST + VICTORIA AV",,43.093893,-79.074161,,,,,,1
3637,6745,"ELLEN AV + CENTRE ST",,43.092725,-79.077113,,,,,,1
3638,6746,"ELLEN AV + MAGDALEN ST",,43.091045,-79.079740,,,,,,1
3639,6747,"ELLEN AV + FERRY ST",,43.089695,-79.081755,,,,,,1
3643,1400,"Schmon Pkwy & Merrittville Hwy",,43.111677,-79.242435,,,,,,0
3644,1401,"113 Cushman Rd",,43.172586,-79.199668,,,,,,0
3645,1402,"110 Cushman Rd",,43.173148,-79.199594,,,,,,0
3646,1403,"Queenston St & Riordon St",,43.162353,-79.239178,,,,,,0
3650,38711,"TABLE ROCK NORTH",,43.078394,-79.079399,,,,,,0
3651,38712,"TABLE ROCK SOUTH",,43.078205,-79.079682,,,,,,0
3654,6893,"Walmart & Oakwood Dr",,43.066761,-79.118928,,,,,,0
3662,120,"LAKESHORE RD + CLIFFORD ST",,43.207261,-79.237133,,,,,,0
3678,238,"BURLEIGH HILL DR + GLENDALE AV",,43.134075,-79.218680,,,,,,0
3679,252,"Oakdale Av & Marren St",,43.153511,-79.225937,,,,,,0
3681,6913,"Main St. & Murray St.",,43.083728,-79.086618,,,,,,0
3685,253,"OAKDALE AVE + CAPNER ST",,43.155087,-79.227158,,,,,,0
3686,6670,"Kalar Rd & Paddock Trail Dr North",,43.100426,-79.136745,,,,,,0
3687,6671,"Kalar Rd & Woodbine St North",,43.104007,-79.136766,,,,,,0
3688,6672,"Kalar Rd & Woodbine St South",,43.104181,-79.136986,,,,,,0
3689,6673,"Kalar Rd & Paddock Trail Dr South",,43.100517,-79.136857,,,,,,0
3698,6562,"O'Neal St @ A.N.MYER",,43.122710,-79.101290,,,,,,0
3712,6102,"NF Bus Terminal",,43.107801,-79.063514,,,,,,0
3713,6108,"Valley Way & Morrison",,43.104756,-79.074077,,,,,,0
3714,6151,"Stanley Av & McLeod Rd",,43.072300,-79.083282,,,,,,0
3715,6171,"Morrison & Portage",,43.104247,-79.093405,,,,,,0
3716,6228,"Jubilee & Dorchester",,43.064638,-79.109857,,,,,,0
3717,6241,"Drummond & McLeod",,43.071410,-79.096958,,,,,,0
3718,6292,"Lundy's Lane & Brookfield",,43.089305,-79.113289,,,,,,0
3720,6428,"Ferguson & Victoria",,43.113443,-79.072942,,,,,,0
3721,6442,"Dorchester & Lundy's Lane",,43.089053,-79.110493,,,,,,0
3722,6443,"Mt. Carmel Plaza",,43.116943,-79.123562,,,,,,0
3723,6444,"Town & Country Plaza",,43.120698,-79.100048,,,,,,0
3724,6496,"Bridge & Victoria",,43.108554,-79.072570,,,,,,0
3725,6539,"Drummond & Morrison NE",,43.104342,-79.098612,,,,,,0
3726,6568,"Thorold Stone Rd. & Stanley N",,43.115540,-79.089382,,,,,,0
3727,6581,"Marineland- Outbound to Chippawa",,43.066091,-79.072478,,,,,,0
3728,6591,"Gunning & Willloughby",,43.055103,-79.046476,,,,,,0
3729,6596,"Marineland- Inbound to M&F",,43.066030,-79.071869,,,,,,0
3730,6697,"Weinbrenner & Willloughby",,43.049147,-79.046893,,,,,,0
3733,WEL,"Welland Bus Terminal",,42.993506,-79.245809,,,,,,0
3734,13006,"Port Colborne City Hall",,42.885123,-79.252388,,,,,,0
3736,2503,"Flag Stop - Elm St & Prosperity",,42.906619,-79.254835,,,,,,0
3738,2507,"Flag Stop - Coronation Dr & West",,42.903076,-79.265209,,,,,,0
3740,2514,"Flag Stop - West Side Rd & Killa",,42.891600,-79.265091,,,,,,0
3744,2523,"Flag Stop - Elm St & Charlotte S",,42.885027,-79.254770,,,,,,0
3745,2534,"Flag Stop - Borden Av & Elm St",,42.901739,-79.254824,,,,,,0
3746,3001,"Flag Stop - Barrick Rd & Apollo",,42.910328,-79.257409,,,,,,0
3748,3006,"Flag Stop - Mall & West Side Rd",,42.905188,-79.265245,,,,,,0
3751,3011,"Flag Stop - Merritt Pk & West Si",,42.899030,-79.265167,,,,,,0
3752,3012,"Flag Stop - West Side Rd & Main",,42.897566,-79.264877,,,,,,0
3758,3024,"Flag Stop - Elm St & Elgin St",,42.888315,-79.254786,,,,,,0
3759,3025,"Flag Stop - Elm St & Killaly St",,42.891652,-79.254840,,,,,,0
3760,3026,"Flag Stop - Elm St & McCain St",,42.895024,-79.254909,,,,,,0
3761,3027,"Flag Stop - Elm St & Neff St",,42.897959,-79.254776,,,,,,0
3768,3035,"Flag Stop - Elm St & Rosedale",,42.902934,-79.254733,,,,,,0
3769,3037,"Flag Stop - King St & Clarence S",,42.886271,-79.251401,,,,,,0
3803,3076,"Flag Stop - Barrick Rd & West Si",,42.910171,-79.264855,,,,,,0
3807,3081,"Flag Stop - Canal Bank St & Town",,42.962625,-79.252431,,,,,,0
3811,4003,"Woodlawn Rd & Trelawn Dr",,43.012985,-79.256681,,,,,,0
3812,4004,"Woodlawn Rd & Gram Av",,43.012910,-79.252392,,,,,,0
3814,4008,"Niagara St & Northtown Business",,43.019418,-79.249762,,,,,,0
3815,4009,"Quaker Rd & Niagara St",,43.022179,-79.250488,,,,,,0
3816,4010,"First Av & Woodland Dr",,43.020403,-79.260013,,,,,,0
3817,4011,"First Av & College Park Dr",,43.018313,-79.260037,,,,,,0
3818,4013,"Hellems Av & 237 Hellems Av",,42.987432,-79.246677,,,,,,0
3819,4014,"Hellems Av & 345 Hellems Av",,42.985038,-79.246677,,,,,,0
3820,4015,"Lincoln St & Kent St",,42.984085,-79.248490,,,,,,0
3821,4016,"Lincoln St & Welland Community W",,42.983640,-79.252917,,,,,,0
3822,4017,"Lincoln St & Denistoun St",,42.985087,-79.256707,,,,,,0
3823,4018,"Denistoun St & 200 Denistoun St",,42.987607,-79.256627,,,,,,0
3824,4020,"Maple Av & Pupos",,42.989307,-79.259632,,,,,,0
3825,4022,"Oakland Av & Wade St",,42.987257,-79.261475,,,,,,0
3826,4023,"Oakland Av & Drew St",,42.985793,-79.261498,,,,,,0
3827,4024,"Oakland Av & Lincoln St",,42.984142,-79.261498,,,,,,0
3828,4025,"Elmwood Av & Lincoln St",,42.983577,-79.262508,,,,,,0
3829,4026,"Windsor St & Mayfair Dr",,42.981742,-79.264042,,,,,,0
3830,4027,"Windsor St & Joanne Ct",,42.981535,-79.266292,,,,,,0
3831,4028,"Windsor St & Riverside Dr",,42.982090,-79.269558,,,,,,0
3832,4031,"Riverside Dr & Arthur St",,42.976400,-79.273023,,,,,,0
3833,4033,"Broadway & Bosnich Av",,42.974496,-79.271749,,,,,,0
3834,4034,"Broadway & Kilgour Av",,42.974540,-79.268255,,,,,,0
3835,4035,"Marshall Av & Martin St",,42.972188,-79.266912,,,,,,0
3836,4037,"Roach Av & Martin St",,42.971537,-79.271513,,,,,,0
3837,4038,"Roach Av & St George St",,42.969900,-79.271457,,,,,,0
3838,4039,"St George St & Marshall Av",,42.969708,-79.267492,,,,,,0
3839,4040,"St George St & Santone Av",,42.971083,-79.265155,,,,,,0
3840,4041,"Clifford Av & St George St",,42.972427,-79.263875,,,,,,0
3841,4042,"Clifford Av & Broadway",,42.974470,-79.263938,,,,,,0
3842,4043,"Broadway & St George St",,42.974588,-79.261022,,,,,,0
3843,4044,"Ontario Rd & Iron St",,42.974588,-79.253187,,,,,,0
3844,4045,"King St & Seventh St",,42.975613,-79.251215,,,,,,0
3846,4047,"King St & Fourth St",,42.979603,-79.251160,,,,,,0
3847,4048,"King St & Second St",,42.981582,-79.251178,,,,,,0
3848,4049,"King St & Albert St",,42.985842,-79.250985,,,,,,0
3849,4050,"King St & 211 King St",,42.987506,-79.251017,,,,,,0
3850,4051,"Welland Museum",,42.989224,-79.250993,,,,,,0
3851,4052,"Division St & King St",,42.990595,-79.250698,,,,,,0
3852,4053,"Division St & Cross St",,42.990960,-79.248910,,,,,,0
3853,4054,"West Main St & Albina St",,42.991365,-79.254553,,,,,,0
3854,4055,"West Main St & Denistoun St",,42.990994,-79.257544,,,,,,0
3855,4056,"Prince Charles Dr & Fitch St",,42.994123,-79.262346,,,,,,0
3856,4057,"Prince Charles Dr & Medical Arts",,42.998033,-79.265925,,,,,,0
3857,4058,"Prince Charles Dr N & Willsonway",,43.002283,-79.269717,,,,,,0
3858,4059,"Thorold Rd & Food Basics",,43.003882,-79.272275,,,,,,0
3859,4060,"Bridlewood Dr & 10 Bridlewood Dr",,43.004310,-79.277592,,,,,,0
3860,4061,"Bridlewood Dr & Chapel Hill",,43.006672,-79.277600,,,,,,0
3861,4063,"Bridlewood Dr & Graystone Cr (N)",,43.009833,-79.279055,,,,,,0
3862,4064,"Clare Av & Woodlawn Rd",,43.012202,-79.280215,,,,,,0
3863,4065,"Woodlawn Rd & Silvan Dr",,43.012845,-79.277650,,,,,,0
3864,4066,"Northwood Dr & Silverstar Ct",,43.013830,-79.276896,,,,,,0
3865,4067,"Northwood Dr & Larchwood Cir",,43.015118,-79.276837,,,,,,0
3866,4068,"Northwood Dr & 112 Northwood Dr",,43.017027,-79.276432,,,,,,0
3867,4069,"Eastwood Dr & Rice Rd",,43.016407,-79.270328,,,,,,0
3868,4070,"Chippawayan Tr & Niagara College",,43.014205,-79.267293,,,,,,0
3869,4072,"Rice Rd & McCrae Rd",,43.009612,-79.270233,,,,,,0
3870,4073,"Rice Rd & Hatter Av",,43.007140,-79.270210,,,,,,0
3871,4075,"Rice Rd & Thorold Rd",,43.004034,-79.270210,,,,,,0
3872,4077,"Willson Rd & Loyalist Dr",,42.999720,-79.270102,,,,,,0
3873,4079,"Willson Rd & Fitch St",,42.994905,-79.270084,,,,,,0
3874,4080,"Fitch St & 235 Fitch St",,42.994465,-79.268293,,,,,,0
3875,4081,"Fitch St Plaza",,42.994488,-79.266729,,,,,,0
3876,4082,"West Main St & Denistoun St",,42.991048,-79.256175,,,,,,0
3877,4083,"West Main St & Albina St",,42.991365,-79.254060,,,,,,0
3878,4085,"Fitch St & Prince Court & Prince",,42.994537,-79.261388,,,,,,0
3879,4086,"First Av & Chippawa Park",,42.996372,-79.259807,,,,,,0
3880,4087,"First Av & Laughlin Av",,42.999925,-79.259807,,,,,,0
3881,4088,"First Av & Norway Av",,43.001775,-79.259807,,,,,,0
3882,4089,"Thorold Rd & 190 Thorold Rd",,43.003850,-79.262270,,,,,,0
3883,4090,"Centennial Dr & Thorold Rd",,43.004645,-79.265783,,,,,,0
3884,4091,"Centennial Dr & Cola St",,43.006560,-79.265752,,,,,,0
3885,4092,"Centennial Dr & Rolling Acres Dr",,43.008188,-79.265973,,,,,,0
3886,4093,"Champlain Av & Woodington Pl",,43.009620,-79.265545,,,,,,0
3887,4094,"Champlain Av & Wiltshire Bl",,43.011742,-79.265743,,,,,,0
3888,4095,"Woodlawn Rd & Champlain Av",,43.013013,-79.265035,,,,,,0
3889,4096,"First Av & Cabot St",,43.011595,-79.260037,,,,,,0
3890,4097,"First Av & Rolling Acres Dr",,43.010017,-79.260092,,,,,,0
3891,4098,"First Av & Trent Av",,43.008093,-79.260100,,,,,,0
3892,4099,"First Av & Lindel Cr",,43.006647,-79.260108,,,,,,0
3893,4100,"First Av & Thorold Rd",,43.004135,-79.260028,,,,,,0
3894,4101,"Thorold Rd & Edgar St",,43.003723,-79.255768,,,,,,0
3895,4102,"Niagara St & Parkway",,43.002213,-79.252940,,,,,,0
3896,4103,"Niagara St & Elmview St",,42.998525,-79.252837,,,,,,0
3897,4105,"Niagara St & Mill St",,42.993033,-79.252710,,,,,,0
3898,4106,"Fitch St & Welland Plaza",,42.994623,-79.266068,,,,,,0
3899,4107,"Fitch St & Westdale Dr",,42.994608,-79.268293,,,,,,0
3900,4108,"Fitch St & Holy Name School",,42.994600,-79.271680,,,,,,0
3901,4109,"Fitch St & 380 Fitch St",,42.994600,-79.275082,,,,,,0
3902,4110,"Fitch St & Oak St",,42.994583,-79.278450,,,,,,0
3903,4111,"Oak St & Heather Ct",,42.996030,-79.278308,,,,,,0
3904,4112,"Leonard Av & Martha Ct",,42.997015,-79.278903,,,,,,0
3905,4113,"Leonard Av & Maureen Av",,42.998573,-79.278927,,,,,,0
3906,4114,"Leonard Av & Dexter Dr",,43.000782,-79.278935,,,,,,0
3907,4115,"Leonard Av & Maple Park Dr",,43.002555,-79.278927,,,,,,0
3908,4116,"Niagara St & Merritt St",,42.995648,-79.252748,,,,,,0
3909,4117,"Clare Av & Thorold Rd",,43.003333,-79.280120,,,,,,0
3910,4118,"Clare Av & 644 Clare Av",,43.005645,-79.280198,,,,,,0
3911,4119,"Clare Av & Vanjo Dr",,43.007712,-79.280198,,,,,,0
3912,4121,"Woodlawn Rd & 519 Woodlawn Rd",,43.012892,-79.282289,,,,,,0
3913,4122,"South Pelham & 761 S Pelham Rd",,43.010462,-79.285420,,,,,,0
3914,4123,"South Pelham Rd & Family Service",,43.006083,-79.285397,,,,,,0
3915,4125,"South Pelham Rd & 578 S Pelham",,43.002817,-79.285380,,,,,,0
3916,4126,"South Pelham Rd & Maple Park",,42.999638,-79.285380,,,,,,0
3917,4127,"South Pelham Rd & Chantler Rd",,42.997302,-79.285388,,,,,,0
3918,4128,"Fitch St & South Pelham Rd",,42.994440,-79.284657,,,,,,0
3919,4129,"Fitch St & Clare Av",,42.994440,-79.280620,,,,,,0
3920,4130,"Fitch St & Oak St",,42.994465,-79.278085,,,,,,0
3921,4131,"Fitch St & Wellbrook Bl",,42.994488,-79.276273,,,,,,0
3922,4132,"Aquador Dr & Acadia Ct",,42.993980,-79.275358,,,,,,0
3923,4133,"Calla Tr South & Aquador Dr",,42.990905,-79.275217,,,,,,0
3924,4134,"Endicott Tr & Winter Dr",,42.989863,-79.272077,,,,,,0
3925,4135,"Endicott Tr & Willison Rd",,42.989855,-79.270282,,,,,,0
3926,4136,"Endicott Tr & Colbeck Dr",,42.989195,-79.266355,,,,,,0
3927,4137,"Colbeck Dr & Diffin St",,42.990157,-79.264552,,,,,,0
3928,4138,"Colbeck Dr & Riverview Dr",,42.991850,-79.261736,,,,,,0
3929,4139,"East Main St & 411 East Main St",,42.993472,-79.239057,,,,,,0
3930,4140,"East Main St & 489 East Main St",,42.993472,-79.235480,,,,,,0
3931,4141,"East Main St & 707 East Main St",,42.993447,-79.232603,,,,,,0
3932,4142,"East Main St & 821 East Main St",,42.993447,-79.230695,,,,,,0
3933,4143,"East Main St & 939 East Main St",,42.993447,-79.228700,,,,,,0
3934,4145,"Wellington St & Promenade Richel",,42.991685,-79.226301,,,,,,0
3935,4146,"Wellington St & Tanguay Av",,42.989813,-79.226157,,,,,,0
3936,4147,"Wellington St & 183 Wellington S",,42.986462,-79.226093,,,,,,0
3937,4148,"Wellington St & 233 Wellington S",,42.984387,-79.226093,,,,,,0
3938,4149,"Lincoln St & 591 Lincoln St",,42.984165,-79.228963,,,,,,0
3939,4150,"Empress Av & 58 Empress Av",,42.981558,-79.231005,,,,,,0
3940,4152,"Empress Av & 90 Empress Av",,42.980097,-79.230942,,,,,,0
3941,4153,"Sutherland Av & Community Care",,42.978610,-79.231545,,,,,,0
3942,4154,"Sutherland Av & 506 Sutherland A",,42.978610,-79.234852,,,,,,0
3943,4155,"Simpson Av & 365 Simpson Av",,42.979078,-79.238063,,,,,,0
3944,4157,"MacInnis Av & Morningstar Av",,42.977012,-79.238405,,,,,,0
3945,4158,"Morningstar Av & 386 Morningstar",,42.976805,-79.236982,,,,,,0
3946,4161,"Southworth St & 73 Southworth St",,42.980732,-79.235948,,,,,,0
3947,4162,"Southworth St & Lewis St",,42.982560,-79.235940,,,,,,0
3948,4163,"Lincoln St & 300 Lincoln St",,42.984094,-79.239399,,,,,,0
3949,4164,"Dunkirk Rd & 7 Dunkirk Rd",,42.983832,-79.241877,,,,,,0
3950,4165,"Dunkirk Rd & 119 Dunkirk Rd",,42.980715,-79.241742,,,,,,0
3951,4166,"McNaughton Rd & 6 McNaughton Rd",,42.978912,-79.242695,,,,,,0
3952,4167,"McNaughton Rd & 96 McNaughton Rd",,42.976385,-79.242608,,,,,,0
3953,4168,"Nelles Rd & 92 Bishops Rd",,42.976425,-79.243825,,,,,,0
3954,4169,"Plymouth Rd & 263 Plymouth Rd",,42.977935,-79.246090,,,,,,0
3955,4170,"Plymouth Rd & 165 Plymouth Rd",,42.979333,-79.246217,,,,,,0
3956,4171,"Plymouth Rd & 120 Plymouth Rd",,42.980732,-79.246343,,,,,,0
3957,4172,"Burgar St & 294 Burgar St",,42.984768,-79.243308,,,,,,0
3958,4175,"King St & 60 King St",,42.990203,-79.251073,,,,,,0
3959,4176,"King St & 211 King St",,42.987300,-79.251082,,,,,,0
3960,4177,"King St & Albert St",,42.985993,-79.251215,,,,,,0
3961,4178,"King St & Rex Hotel",,42.984633,-79.251223,,,,,,0
3962,4179,"King St & Labs",,42.981915,-79.251335,,,,,,0
3963,4180,"King St & Fourth St",,42.979380,-79.251358,,,,,,0
3964,4181,"King St & Sixth St",,42.977275,-79.251382,,,,,,0
3965,4182,"King St & Seventh St",,42.975558,-79.251382,,,,,,0
3966,4183,"Ontario Rd & Beatrice St",,42.974596,-79.245025,,,,,,0
3967,4184,"Ontario Rd & Commercial St",,42.974609,-79.242524,,,,,,0
3968,4185,"Ontario Rd & Deere St",,42.974260,-79.240113,,,,,,0
3969,4186,"Orchard Av & Wright St",,42.972797,-79.239108,,,,,,0
3970,4187,"Harriet Av & McCabe Av",,42.968380,-79.238209,,,,,,0
3971,4189,"Wright St & McCabe Av",,42.968740,-79.239040,,,,,,0
